,Neighbourhood,Neighbourhood Latitude,Neighbourhood Longitude,Venue Name,Venue Category,Venue Latitude,Venue Longitude
0,Abhirampur,22.530693771856434,88.34650250291418,Balaram Mullick & Radharaman Mullick,Indian Sweet Shop,22.53309675113572,88.34708213260403
1,Abhirampur,22.530693771856434,88.34650250291418,Jai Hind Dhaba,Dhaba,22.533109206899187,88.35326750112607
2,Abhirampur,22.530693771856434,88.34650250291418,Balwant Singh's Eating House,Dhaba,22.537714013534053,88.34421978219828
3,Abhirampur,22.530693771856434,88.34650250291418,Oh! Calcutta,Bengali Restaurant,22.53835691442138,88.35140625118088
4,Abhirampur,22.530693771856434,88.34650250291418,Red Hot Chilli Pepper,Chinese Restaurant,22.529016083164827,88.35580534635506
5,Abhirampur,22.530693771856434,88.34650250291418,Tyre Patty,Café,22.538047883894258,88.34916916320414
6,Abhirampur,22.530693771856434,88.34650250291418,Privy Ultra Lounge,Nightclub,22.538145062632534,88.35112105873428
7,Abhirampur,22.530693771856434,88.34650250291418,The Corner Courtyard,Hotel,22.52577918884149,88.35261113769022
8,Abhirampur,22.530693771856434,88.34650250291418,Balwant Singh's Snack Corner,Fast Food Restaurant,22.537708685771694,88.34422786780709
9,Abhirampur,22.530693771856434,88.34650250291418,The Bikers Cafe,American Restaurant,22.537719331717604,88.34899306297302
10,Abhirampur,22.530693771856434,88.34650250291418,Forum Mall,Shopping Mall,22.53860126968133,88.35111737251282
11,Abhirampur,22.530693771856434,88.34650250291418,Inox,Multiplex,22.538450321858086,88.35138027670322
12,Abhirampur,22.530693771856434,88.34650250291418,Cafe Coffee Day,Café,22.525475667229617,88.3452969789505
13,Abhirampur,22.530693771856434,88.34650250291418,Cafe Mezzuna,Italian Restaurant,22.53835753027732,88.35143268133186
14,Abhirampur,22.530693771856434,88.34650250291418,McDonald's,Fast Food Restaurant,22.53620636516543,88.34635260366345
15,Abhirampur,22.530693771856434,88.34650250291418,Chai Break,Tea Room,22.539381735917196,88.34706981626309
16,Abhirampur,22.530693771856434,88.34650250291418,Pan Asia Continental Hotel,Hotel,22.533065255776958,88.35318837854379
17,Abhirampur,22.530693771856434,88.34650250291418,Ajanta Hotel,Vegetarian / Vegan Restaurant,22.53231362258056,88.34984064102173
18,Abhirampur,22.530693771856434,88.34650250291418,Pepper Chino,Indian Restaurant,22.533765405764033,88.35326313972473
19,Abhirampur,22.530693771856434,88.34650250291418,Shoppers Stop,Department Store,22.53835353486725,88.35131049156189
20,Agarpara,22.68405000000007,88.39165000000008,Axis Bank ATM,ATM,22.68287,88.39429
21,Agarpara,22.68405000000007,88.39165000000008,Agarpara Railway Station,Train Station,22.682885571740055,88.38536381721497
22,Agarpara,22.68405000000007,88.39165000000008,Apollo Pharmacy,Pharmacy,22.6818638,88.3843469
23,Agarpara,22.68405000000007,88.39165000000008,Axis Bank ATM,ATM,22.68897819519,88.383682250977
24,Agarpara,22.68405000000007,88.39165000000008,Axis Bank ATM,ATM,22.68897819519,88.383682250977
25,Ajoy Nagar,22.48966000000007,88.39640000000009,Metro Cash and Carry,Grocery Store,22.49549683979399,88.39871108845009
26,Ajoy Nagar,22.48966000000007,88.39640000000009,Inox,Multiplex,22.48319670950164,88.39080333709717
27,Ajoy Nagar,22.48966000000007,88.39640000000009,Ajoy Nagar,Bus Station,22.489780059160733,88.39488480533251
28,Ajoy Nagar,22.48966000000007,88.39640000000009,The French Loaf,Bakery,22.490871000076805,88.39455319497635
29,Ajoy Nagar,22.48966000000007,88.39640000000009,HDFC Bank ATM,ATM,22.490944,88.390876
30,Ajoy Nagar,22.48966000000007,88.39640000000009,Metropolis Mall,Shopping Mall,22.48319670950164,88.39080333709717
31,Ajoy Nagar,22.48966000000007,88.39640000000009,Big Bazaar,Department Store,22.48319670950164,88.39080333709717
32,Alipore,22.52660000000003,88.33510000000007,Piccadilly Square,Dessert Shop,22.52460326821862,88.3320793450184
33,Alipore,22.52660000000003,88.33510000000007,Kookie Jar,Café,22.52220760800285,88.33124859024414
34,Alipore,22.52660000000003,88.33510000000007,Domino's Pizza,Pizza Place,22.525,88.334
35,Alipore,22.52660000000003,88.33510000000007,Red Kitchen & Lounge,Chinese Restaurant,22.522154835812675,88.33119595688952
36,Alipore,22.52660000000003,88.33510000000007,Garden Cafe,South Indian Restaurant,22.53205101170573,88.3317518234253
37,Alipore,22.52660000000003,88.33510000000007,Mangio,Italian Restaurant,22.52243643662978,88.3312542833858
38,Alipore,22.52660000000003,88.33510000000007,The French Loaf,Bakery,22.525242774383898,88.32763195037842
39,Alipore,22.52660000000003,88.33510000000007,Check In Check Out,Hotel,22.522684824988897,88.32776237367823
40,Alipore,22.52660000000003,88.33510000000007,Sparkz,Athletics & Sports,22.52716998685191,88.32551335896203
41,Amtala,22.482678048848754,88.37658799417164,Cafe Coffee Day,Café,22.490272700936092,88.37289351963958
42,Amtala,22.482678048848754,88.37658799417164,Bancharaam,Dessert Shop,22.47944553901411,88.37477039497371
43,Amtala,22.482678048848754,88.37658799417164,State Bank of India ATM,ATM,22.4844471,88.3829917
44,Amtala,22.482678048848754,88.37658799417164,HDFC Bank ATM,ATM,22.480827,88.369446
45,Amtala,22.482678048848754,88.37658799417164,Samsung SmartCafé (Fast Information Centre),Mobile Phone Shop,22.483,88.3856
46,"Anandapur, Kolkata",22.512078083819034,88.336961916181,Barista,Café,22.513663237847574,88.32790945707296
47,"Anandapur, Kolkata",22.512078083819034,88.336961916181,Zyka,Asian Restaurant,22.508965069697684,88.33626866689522
48,"Anandapur, Kolkata",22.512078083819034,88.336961916181,Chetla Park,Park,22.517155698474916,88.33634376525879
49,"Anandapur, Kolkata",22.512078083819034,88.336961916181,Hindustan Sweets,Indian Sweet Shop,22.50653571886969,88.33541004827485
50,"Anandapur, Kolkata",22.512078083819034,88.336961916181,Zodiac Retail Shop,Men's Store,22.517274629490657,88.34280252456665
51,"Anandapur, Kolkata",22.512078083819034,88.336961916181,Subway,Fast Food Restaurant,22.51368470062139,88.3273875459475
52,Ankurhati,22.47640513266778,88.38044069608748,Patuli Bus Stand,Bus Station,22.471491537169943,88.37981290852971
53,Ankurhati,22.47640513266778,88.38044069608748,Bancharaam,Dessert Shop,22.47944553901411,88.37477039497371
54,Ankurhati,22.47640513266778,88.38044069608748,Red Bamboo Shoot,Chinese Restaurant,22.471399313635082,88.38618993759155
55,Ankurhati,22.47640513266778,88.38044069608748,Azad Hind Dhaba,Diner,22.471997507738227,88.38673592671309
56,Ankurhati,22.47640513266778,88.38044069608748,Samsung SmartCafé (Fast Information Centre),Mobile Phone Shop,22.483,88.3856
57,Ankurhati,22.47640513266778,88.38044069608748,State Bank of India ATM,ATM,22.4844471,88.3829917
58,Argari,22.57054000000005,88.37124000000006,Big Bazaar,Department Store,22.565918736488236,88.36963534355162
59,Argari,22.57054000000005,88.37124000000006,Bhim Chandra Nag,Indian Sweet Shop,22.570638822213024,88.37152372833114
60,Argari,22.57054000000005,88.37124000000006,Indian Coffee House,Café,22.576186678115835,88.36401300379693
61,Argari,22.57054000000005,88.37124000000006,College Square,Plaza,22.57474596671362,88.36389541625975
62,Argari,22.57054000000005,88.37124000000006,Paramount,Juice Bar,22.573874166664815,88.3644962310791
63,Argari,22.57054000000005,88.37124000000006,Café Coffee Day,Café,22.565918736488236,88.36963534355162
64,Argari,22.57054000000005,88.37124000000006,Sealdah Railway Station,Train Station,22.56796955755306,88.3711266517639
65,Argari,22.57054000000005,88.37124000000006,Sealdah Rajdhani,Platform,22.568173374957258,88.37283664335622
66,Argari,22.57054000000005,88.37124000000006,Santosh Mitra Square,Park,22.56600790325582,88.36571931838989
67,B. B. D. Bagh,22.567620000000034,88.34456000000006,Eden Garden,Cricket Ground,22.564541597977065,88.34329605102539
68,B. B. D. Bagh,22.567620000000034,88.34456000000006,Lalit Great Eastern Hotel,Hotel,22.56796710486943,88.35001000801633
69,B. B. D. Bagh,22.567620000000034,88.34456000000006,The Oberoi Grand,Hotel,22.56174943131244,88.35159438973265
70,B. B. D. Bagh,22.567620000000034,88.34456000000006,Calcutta Swimming Club,Pool,22.568066908154865,88.34206982619719
71,B. B. D. Bagh,22.567620000000034,88.34456000000006,Amber,Indian Restaurant,22.567543544093432,88.35184693336487
72,B. B. D. Bagh,22.567620000000034,88.34456000000006,Netaji Indoor Stadium,Stadium,22.566156514407012,88.3416974544525
73,B. B. D. Bagh,22.567620000000034,88.34456000000006,Esplanade,Neighborhood,22.564244372033293,88.35230827331543
74,B. B. D. Bagh,22.567620000000034,88.34456000000006,The Floatel Hotel,Hotel,22.56976164879978,88.34186892294773
75,B. B. D. Bagh,22.567620000000034,88.34456000000006,Baan Thai,Thai Restaurant,22.561681720242696,88.35157777094761
76,B. B. D. Bagh,22.567620000000034,88.34456000000006,The Peerless Inn,Hotel,22.56234441515912,88.35145933869875
77,B. B. D. Bagh,22.567620000000034,88.34456000000006,New Aliah Hotel & Caterer,Mughlai Restaurant,22.567537194306293,88.35243692856844
78,B. B. D. Bagh,22.567620000000034,88.34456000000006,K. C. Das,Indian Sweet Shop,22.565434244831792,88.35166743562479
79,B. B. D. Bagh,22.567620000000034,88.34456000000006,Millennium Park,Park,22.572481038151835,88.34451717949295
80,B. B. D. Bagh,22.567620000000034,88.34456000000006,Babu Ghat,River,22.567724968842303,88.34068482853557
81,B. B. D. Bagh,22.567620000000034,88.34456000000006,Ramkrishnapur ghat,Boat or Ferry,22.56963996195657,88.34040972098622
82,B. B. D. Bagh,22.567620000000034,88.34456000000006,Bakery & Wilson's,Bakery,22.568417407456767,88.35050691971271
83,B. B. D. Bagh,22.567620000000034,88.34456000000006,Kaka Tea,Breakfast Spot,22.56951679412061,88.35113287796466
84,B. B. D. Bagh,22.567620000000034,88.34456000000006,Outram Ghat,River,22.563828254635645,88.33806037902832
85,B. B. D. Bagh,22.567620000000034,88.34456000000006,Fairlie Ghat,Boat or Ferry,22.575726825751644,88.34513373892916
86,Babughat,22.56729000000007,88.34106000000008,Eden Garden,Cricket Ground,22.564541597977065,88.34329605102539
87,Babughat,22.56729000000007,88.34106000000008,Lalit Great Eastern Hotel,Hotel,22.56796710486943,88.35001000801633
88,Babughat,22.56729000000007,88.34106000000008,Calcutta Swimming Club,Pool,22.568066908154865,88.34206982619719
89,Babughat,22.56729000000007,88.34106000000008,Netaji Indoor Stadium,Stadium,22.566156514407012,88.3416974544525
90,Babughat,22.56729000000007,88.34106000000008,The Floatel Hotel,Hotel,22.56976164879978,88.34186892294773
91,Babughat,22.56729000000007,88.34106000000008,Millennium Park,Park,22.572481038151835,88.34451717949295
92,Babughat,22.56729000000007,88.34106000000008,Babu Ghat,River,22.567724968842303,88.34068482853557
93,Babughat,22.56729000000007,88.34106000000008,Ramkrishnapur ghat,Boat or Ferry,22.56963996195657,88.34040972098622
94,Babughat,22.56729000000007,88.34106000000008,Outram Ghat,River,22.563828254635645,88.33806037902832
95,Babughat,22.56729000000007,88.34106000000008,Bakery & Wilson's,Bakery,22.568417407456767,88.35050691971271
96,Badartala,22.555079999999997,88.24685148658381,State Bank of India ATM,ATM,22.5552313,88.2529903
97,Bagbazar,22.604020000000048,88.36638000000005,Girish Chandra Dey & Nakur Chandra Nandy,Indian Sweet Shop,22.59603964813232,88.36748519805334
98,Bagbazar,22.604020000000048,88.36638000000005,Golbari,Indian Restaurant,22.601742094751607,88.37392675908148
99,Bagbazar,22.604020000000048,88.36638000000005,Kotak Mahindra Bank - Branch/ATM,Bank,22.603536,88.369274
100,Bagbazar,22.604020000000048,88.36638000000005,Mitra Café,Fast Food Restaurant,22.595925050160336,88.36391687393188
101,Bagbazar,22.604020000000048,88.36638000000005,Five Point Crossing,Plaza,22.601877985275,88.37379276752472
102,Bagbazar,22.604020000000048,88.36638000000005,Hatibagan Market,Market,22.595476694261805,88.36666156639686
103,Bagbazar,22.604020000000048,88.36638000000005,Baghbazar Ghat,River,22.604887227482852,88.3648258188372
104,Bagbazar,22.604020000000048,88.36638000000005,Kumartuli,Neighborhood,22.600523184961787,88.36256924753154
105,Bagbazar,22.604020000000048,88.36638000000005,Shyambazar Metro Station,Metro Station,22.60082806866278,88.37095499038696
106,Bagbazar,22.604020000000048,88.36638000000005,Dimpi Restaurant,Vegetarian / Vegan Restaurant,22.60137697288142,88.37348597647116
107,Bagbazar,22.604020000000048,88.36638000000005,Shobhabazar Sutanuti Metro Station,Metro Station,22.595814298878597,88.36525770767976
108,Bagbazar,22.604020000000048,88.36638000000005,Arsalan,Mughlai Restaurant,22.59675435996533,88.37158060634327
109,Baghajatin,22.48395000000005,88.37543000000005,Cafe Coffee Day,Café,22.490272700936092,88.37289351963958
110,Baghajatin,22.48395000000005,88.37543000000005,State Bank of India ATM,ATM,22.4844471,88.3829917
111,Baghajatin,22.48395000000005,88.37543000000005,Calcutta Bistro,Bistro,22.49186071124546,88.37213516235352
112,Baghajatin,22.48395000000005,88.37543000000005,Apollo Pharmacy,Pharmacy,22.491396,88.3702992
113,Baguiati,22.61674000000005,88.42691000000008,KFC,Fried Chicken Joint,22.61836455157655,88.43203268807126
114,Baguiati,22.61674000000005,88.42691000000008,"Big Bazaar, VIP Road",Department Store,22.6169463539868,88.43192761110498
115,Baguiati,22.61674000000005,88.42691000000008,Baguiati A.C. Market,Shopping Mall,22.610960420084684,88.42586517333984
116,Baguiati,22.61674000000005,88.42691000000008,Mio Amore,Bakery,22.610445401647937,88.42710971832275
117,Baguiati,22.61674000000005,88.42691000000008,HDFC Bank ATM,ATM,22.610473,88.426021
118,Baidyabati,22.472510000000057,88.36513000000008,Cafe Coffee Day,Café,22.469099200069817,88.37050437927246
119,Baidyabati,22.472510000000057,88.36513000000008,Spencer's Neighborhood Store,Supermarket,22.472737724209335,88.36387395858763
120,Baidyabati,22.472510000000057,88.36513000000008,Reliance Digital,Electronics Store,22.47365973285938,88.36199641227722
121,Baidyabati,22.472510000000057,88.36513000000008,Axis Bank ATM,ATM,22.46806,88.37232
122,Balaram Pota,22.700780000000066,88.38065000000006,Penguin Dhaba,Dhaba,22.70517629814379,88.3743667602539
123,Balaram Pota,22.700780000000066,88.38065000000006,World of Titan,Watch Shop,22.701449434587186,88.38231025120491
124,Balaram Pota,22.700780000000066,88.38065000000006,Sodepur Station,Train Station,22.700088947335264,88.38219881057739
125,Balaram Pota,22.700780000000066,88.38065000000006,Sriniketan Shoppers Pleasure,Clothing Store,22.700524447796603,88.37981700897217
126,"Balarampur, Budge Budge",22.497570000000053,88.23033000000004,HDFC Bank ATM,ATM,22.499146,88.23048
127,"Balarampur, Budge Budge",22.497570000000053,88.23033000000004,Nungi Railway Station,Train Station,22.50026645535104,88.22339057922363
128,"Bally, Bally-Jagachha",22.647860000000037,88.34428000000008,Bally Ghat Railway Station,Train Station,22.65242297769844,88.347909450531
129,"Bally, Bally-Jagachha",22.647860000000037,88.34428000000008,Bally Halt,Bus Station,22.652869389603612,88.34723946031961
130,"Bally, Bally-Jagachha",22.647860000000037,88.34428000000008,Bally Railway Station,Train Station,22.65502696716386,88.34043145179749
131,"Bally, Howrah",22.647860000000037,88.34428000000008,Bally Ghat Railway Station,Train Station,22.65242297769844,88.347909450531
132,"Bally, Howrah",22.647860000000037,88.34428000000008,Bally Halt,Bus Station,22.652869389603612,88.34723946031961
133,"Bally, Howrah",22.647860000000037,88.34428000000008,Bally Railway Station,Train Station,22.65502696716386,88.34043145179749
134,Ballygunge,22.531780000000026,88.36437000000006,6 Ballygunge Place,Bengali Restaurant,22.527711762714475,88.36867703124626
135,Ballygunge,22.531780000000026,88.36437000000006,Calcutta Cricket and Football Club,Sports Club,22.532939703121933,88.36423324314768
136,Ballygunge,22.531780000000026,88.36437000000006,Paris Café,Bakery,22.534915239713765,88.36481159711806
137,Ballygunge,22.531780000000026,88.36437000000006,Yauatcha,Chinese Restaurant,22.539091355187338,88.36557324255233
138,Ballygunge,22.531780000000026,88.36437000000006,Mithai,Indian Sweet Shop,22.53835353486725,88.36498975753784
139,Ballygunge,22.531780000000026,88.36437000000006,Bombay Brasserie,Indian Restaurant,22.53876974957041,88.3655321583331
140,Ballygunge,22.531780000000026,88.36437000000006,Balaram Mullick & Radharaman Mullick,Indian Sweet Shop,22.52824557543919,88.36643815040588
141,Ballygunge,22.531780000000026,88.36437000000006,The Cream & Fudge Factory,Bakery,22.53454891550832,88.36485351370527
142,Ballygunge,22.531780000000026,88.36437000000006,Mama Mia!,Ice Cream Shop,22.527692395184957,88.36126689677388
143,Ballygunge,22.531780000000026,88.36437000000006,Quest Mall,Shopping Mall,22.539068009925764,88.36552456686483
144,Ballygunge,22.531780000000026,88.36437000000006,Chili's Grill & Bar,Tex-Mex Restaurant,22.539151461669206,88.36549604020865
145,Ballygunge,22.531780000000026,88.36437000000006,Serafina,Italian Restaurant,22.539176012738004,88.3654510974884
146,Ballygunge,22.531780000000026,88.36437000000006,Mainland China,Chinese Restaurant,22.53705616463969,88.35928036581664
147,Ballygunge,22.531780000000026,88.36437000000006,Red Hot Chilli Pepper,Chinese Restaurant,22.529016083164827,88.35580534635506
148,Ballygunge,22.531780000000026,88.36437000000006,New Sharma's Dhaba,Dhaba,22.534092586864595,88.35678557302948
149,Ballygunge,22.531780000000026,88.36437000000006,The Irish House,Irish Pub,22.539018049959683,88.36557017703898
150,Ballygunge,22.531780000000026,88.36437000000006,Inox,Multiplex,22.539139076100746,88.3655587998217
151,Ballygunge,22.531780000000026,88.36437000000006,Chowman,Chinese Restaurant,22.526977073385158,88.36850881576538
152,Ballygunge,22.531780000000026,88.36437000000006,Bohemian,Bengali Restaurant,22.529425566363432,88.3686920178698
153,Ballygunge,22.531780000000026,88.36437000000006,Cream Centre,Vegetarian / Vegan Restaurant,22.52709599594756,88.36844444274902
154,Ballygunge,22.531780000000026,88.36437000000006,Chai Break,Hookah Bar,22.535826729446256,88.36500121963104
155,Ballygunge,22.531780000000026,88.36437000000006,Ballygunge Phari,Plaza,22.527779798694564,88.36609482765198
156,Ballygunge,22.531780000000026,88.36437000000006,Smoke Shack,Lounge,22.523251858661805,88.36377448643061
157,Ballygunge,22.531780000000026,88.36437000000006,Spencer's Hyper,Department Store,22.539201491531596,88.36558015564806
158,Ballygunge,22.531780000000026,88.36437000000006,Azad Hind Dhaba,Dhaba,22.53578100992001,88.3570908279753
159,Ballygunge,22.531780000000026,88.36437000000006,Hotel Park Plaza,Hotel,22.523317433172185,88.36381243056712
160,Ballygunge,22.531780000000026,88.36437000000006,Lifestyle,Clothing Store,22.539396039916312,88.36559378472143
161,Ballygunge,22.531780000000026,88.36437000000006,Cafe Coffee Day,Café,22.528270922769387,88.35881774175695
162,Ballygunge,22.531780000000026,88.36437000000006,The Coffee Bean & Tea Leaf,Coffee Shop,22.538808980119725,88.3655236253766
163,Ballygunge,22.531780000000026,88.36437000000006,Domino's Pizza,Pizza Place,22.528,88.367
164,Ballygunge Circular Road,22.5303523517102,88.35621146045604,Red Hot Chilli Pepper,Chinese Restaurant,22.529016083164827,88.35580534635506
165,Ballygunge Circular Road,22.5303523517102,88.35621146045604,Jai Hind Dhaba,Dhaba,22.533109206899187,88.35326750112607
166,Ballygunge Circular Road,22.5303523517102,88.35621146045604,New Sharma's Dhaba,Dhaba,22.534092586864595,88.35678557302948
167,Ballygunge Circular Road,22.5303523517102,88.35621146045604,Mama Mia!,Ice Cream Shop,22.527692395184957,88.36126689677388
168,Ballygunge Circular Road,22.5303523517102,88.35621146045604,Balaram Mullick & Radharaman Mullick,Indian Sweet Shop,22.53309675113572,88.34708213260403
169,Ballygunge Circular Road,22.5303523517102,88.35621146045604,Mainland China,Chinese Restaurant,22.53705616463969,88.35928036581664
170,Ballygunge Circular Road,22.5303523517102,88.35621146045604,The French Loaf,Bakery,22.539240423448703,88.35492074489594
171,Ballygunge Circular Road,22.5303523517102,88.35621146045604,The Corner Courtyard,Hotel,22.52577918884149,88.35261113769022
172,Ballygunge Circular Road,22.5303523517102,88.35621146045604,Picadilly Square,Café,22.538270555260876,88.35448772169569
173,Ballygunge Circular Road,22.5303523517102,88.35621146045604,Calcutta Cricket and Football Club,Sports Club,22.532939703121933,88.36423324314768
174,Ballygunge Circular Road,22.5303523517102,88.35621146045604,Azad Hind Dhaba,Dhaba,22.53578100992001,88.3570908279753
175,Ballygunge Circular Road,22.5303523517102,88.35621146045604,Cafe Coffee Day,Café,22.528270922769387,88.35881774175695
176,Ballygunge Circular Road,22.5303523517102,88.35621146045604,Cafe Coffee Day,Café,22.524861225681786,88.35523724555969
177,Ballygunge Circular Road,22.5303523517102,88.35621146045604,Pan Asia Continental Hotel,Hotel,22.533065255776958,88.35318837854379
178,Ballygunge Circular Road,22.5303523517102,88.35621146045604,Domino's Pizza,Pizza Place,22.537,88.358
179,Ballygunge Circular Road,22.5303523517102,88.35621146045604,Haldiram Food City,Vegetarian / Vegan Restaurant,22.532821925843496,88.36478765709987
180,Ballygunge Circular Road,22.5303523517102,88.35621146045604,Ajanta Hotel,Vegetarian / Vegan Restaurant,22.53231362258056,88.34984064102173
181,Ballygunge Circular Road,22.5303523517102,88.35621146045604,Solace,Gym / Fitness Center,22.531982439198956,88.36393458206182
182,Ballygunge Circular Road,22.5303523517102,88.35621146045604,Minto Park,Pool,22.537640331910904,88.35332840235901
183,Bandel,22.529814323843247,88.37228790250983,6 Ballygunge Place,Bengali Restaurant,22.527711762714475,88.36867703124626
184,Bandel,22.529814323843247,88.37228790250983,Balaram Mullick & Radharaman Mullick,Indian Sweet Shop,22.52824557543919,88.36643815040588
185,Bandel,22.529814323843247,88.37228790250983,Chowman,Chinese Restaurant,22.526977073385158,88.36850881576538
186,Bandel,22.529814323843247,88.37228790250983,Cream Centre,Vegetarian / Vegan Restaurant,22.52709599594756,88.36844444274902
187,Bandel,22.529814323843247,88.37228790250983,Bohemian,Bengali Restaurant,22.529425566363432,88.3686920178698
188,Bandel,22.529814323843247,88.37228790250983,Paris Café,Bakery,22.534915239713765,88.36481159711806
189,Bandel,22.529814323843247,88.37228790250983,Calcutta Cricket and Football Club,Sports Club,22.532939703121933,88.36423324314768
190,Bandel,22.529814323843247,88.37228790250983,The Cream & Fudge Factory,Bakery,22.53454891550832,88.36485351370527
191,Bandel,22.529814323843247,88.37228790250983,Ballygunge Phari,Plaza,22.527779798694564,88.36609482765198
192,Bandel,22.529814323843247,88.37228790250983,Domino's Pizza,Pizza Place,22.528,88.367
193,Bandel,22.529814323843247,88.37228790250983,Ballygunge Dhaba,Dhaba,22.528196024796333,88.36578369140625
194,Bandel,22.529814323843247,88.37228790250983,Ice Skating Rink,Flea Market,22.52705001628729,88.36606309048823
195,Bandel,22.529814323843247,88.37228790250983,Haldiram Food City,Vegetarian / Vegan Restaurant,22.532821925843496,88.36478765709987
196,Bangur Avenue,22.62206007407968,88.39374329365678,Dum Dum Railway Junction,Train Station,22.62143383151218,88.39331200215173
197,Bangur Avenue,22.62206007407968,88.39374329365678,Mio Amore,Bakery,22.621092212206577,88.39279088001274
198,Bangur Avenue,22.62206007407968,88.39374329365678,Dum Dum Metro Railway Station,Metro Station,22.621775361822166,88.39333534240723
199,Bangur Avenue,22.62206007407968,88.39374329365678,Platform 2,Platform,22.621654354792973,88.39305144186935
200,Bankra,22.670020000000022,88.44225000000006,Sher-e-Punjab,Dhaba,22.67779937114212,88.44636712273714
201,Bankra,22.670020000000022,88.44225000000006,MedPlus,Pharmacy,22.668608,88.443088
202,Bankra,22.670020000000022,88.44225000000006,Axis Bank ATM,ATM,22.671852111816,88.442268371582
203,Bankra,22.670020000000022,88.44225000000006,Axis Bank ATM,ATM,22.668,88.44475
204,Bankra,22.670020000000022,88.44225000000006,Bhajohari Ranna,Asian Restaurant,22.6618296758145,88.44102480390356
205,Bansdroni,22.471750000000043,88.35670000000005,Cafe Coffee Day,Café,22.476444244384766,88.3545913696289
206,Bansdroni,22.471750000000043,88.35670000000005,Pizza Hut,Pizza Place,22.4800175837,88.3549002931
207,Bansdroni,22.471750000000043,88.35670000000005,Reliance Digital,Electronics Store,22.47365973285938,88.36199641227722
208,Bansdroni,22.471750000000043,88.35670000000005,Spencer's Neighborhood Store,Supermarket,22.472737724209335,88.36387395858763
209,Bansdroni,22.471750000000043,88.35670000000005,State Bank of India ATM,ATM,22.4655687,88.3523584
210,Bansdroni,22.471750000000043,88.35670000000005,HDFC Bank ATM,ATM,22.474641,88.365684
211,Bansdroni,22.471750000000043,88.35670000000005,HDFC Bank ATM,ATM,22.474641,88.365684
212,Bantala,22.482650000000035,88.27497000000005,State Bank of India ATM,ATM,22.4877771,88.2762033
213,Bantala,22.482650000000035,88.27497000000005,Axis Bank ATM,ATM,22.477382659912,88.276611328125
214,Banupur,22.66118000000006,88.41734000000008,MedPlus,Pharmacy,22.66297,88.41964
215,Banupur,22.66118000000006,88.41734000000008,Apollo Pharmacy,Pharmacy,22.6632568,88.4220649
216,Banupur,22.66118000000006,88.41734000000008,Royal Pet,Pet Store,22.65789,88.42138
217,Banupur,22.66118000000006,88.41734000000008,Big Bazaar,Department Store,22.66404987639457,88.42274043721687
218,Banupur,22.66118000000006,88.41734000000008,State Bank of India ATM,ATM,22.666019439697,88.423164367676
219,Banupur,22.66118000000006,88.41734000000008,Axis Bank ATM,ATM,22.666019439697,88.423164367676
220,Baranagar,22.642980000000023,88.37775000000005,Domino's Pizza,Pizza Place,22.641,88.378
221,Baranagar,22.642980000000023,88.37775000000005,Planet M,Music Store,22.64053503455025,88.38059956336592
222,Baranagar,22.642980000000023,88.37775000000005,Tobin Road More,Plaza,22.638075397324002,88.37806820869446
223,Baranagar,22.642980000000023,88.37775000000005,HDFC Bank ATM,ATM,22.649204,88.375739
224,Barasat,22.69805585900673,88.44339066856064,MedPlus,Pharmacy,22.69716,88.44093
225,Barasat,22.69805585900673,88.44339066856064,Axis Bank ATM,ATM,22.701225280762,88.435577392578
226,Barasat,22.69805585900673,88.44339066856064,Mio Amore,Bakery,22.700513216682836,88.45153372908429
227,Barasat,22.69805585900673,88.44339066856064,MedPlus,Pharmacy,22.695925,88.452097
228,Barasat,22.69805585900673,88.44339066856064,HDFC Bank ATM,ATM,22.690079,88.447212
229,"Barisha, India",22.48222000000004,88.31636000000003,State Bank of India ATM,ATM,22.4811681,88.3134551
230,"Barisha, India",22.48222000000004,88.31636000000003,VLCC,Health & Beauty Service,22.486963843068068,88.31334103372491
231,"Barisha, India",22.48222000000004,88.31636000000003,Shaw Sweets,Indian Sweet Shop,22.48896190148827,88.31477436602493
232,"Barisha, India",22.48222000000004,88.31636000000003,Udyog Bags,Business Service,22.48948163434864,88.31414580345154
233,"Barisha, India",22.48222000000004,88.31636000000003,State Bank of India ATM,ATM,22.47519,88.311308
234,"Barisha, India",22.48222000000004,88.31636000000003,State Bank of India ATM,ATM,22.4825653,88.3260505
235,Barkalikapur,22.501570000000072,88.39552000000003,Metro Cash and Carry,Grocery Store,22.49549683979399,88.39871108845009
236,Barkalikapur,22.501570000000072,88.39552000000003,Wasabee - Oriental Cuisine,Japanese Restaurant,22.503259887109447,88.39631795883179
237,Barkalikapur,22.501570000000072,88.39552000000003,Spencer's,Supermarket,22.504132133180462,88.40000867843628
238,Barkalikapur,22.501570000000072,88.39552000000003,Avishar Shopping Mall,Shopping Mall,22.50411230946722,88.4000301361084
239,Barrackpore,22.695640000000026,88.42739000000006,Readymade Center,Clothing Store,22.699099610979022,88.43471158876282
240,Barrackpore,22.695640000000026,88.42739000000006,Toll Booth,Toll Booth,22.699442747442514,88.4186356812815
241,Barrackpur Cantonment,22.76361000000003,88.36019000000005,Jayanti Cinema,Multiplex,22.760884275347546,88.36670778505021
242,Barrackpur Cantonment,22.76361000000003,88.36019000000005,Ubique Restaurant,Eastern European Restaurant,22.763222047439413,88.3625864982605
243,Barrackpur Cantonment,22.76361000000003,88.36019000000005,Veer Jawan Jheel,Lake,22.765784358397106,88.35456132888794
244,Barrackpur Cantonment,22.76361000000003,88.36019000000005,Barakpore Mangalpandey Park,Park,22.76110280449866,88.35260763773773
245,Barrackpur Cantonment,22.76361000000003,88.36019000000005,Axis Bank ATM,ATM,22.768669128418,88.354095458984
246,Barrackpur Cantonment,22.76361000000003,88.36019000000005,Axis Bank ATM,ATM,22.768669128418,88.354095458984
247,Bartala,22.582330227634834,88.35492645261421,Jorasankho Thakur-Bari,History Museum,22.584401229707083,88.35952553409135
248,Bartala,22.582330227634834,88.35492645261421,Marble Palace,Art Museum,22.582444043602294,88.36018454941356
249,Bartala,22.582330227634834,88.35492645261421,Domino's Pizza,Pizza Place,22.587,88.363
250,Bartala,22.582330227634834,88.35492645261421,Girish Park,Park,22.586068959463702,88.36240410804749
251,Bartala,22.582330227634834,88.35492645261421,Royal Indian Hotel,Indian Restaurant,22.57949123617736,88.35665345191956
252,Bartala,22.582330227634834,88.35492645261421,Rabindra Bharati Museum,Museum,22.58503469764741,88.35901348647492
253,Bartala,22.582330227634834,88.35492645261421,Bhikharam Sweets & Snacks,Vegetarian / Vegan Restaurant,22.57723804649535,88.35553804009835
254,Bartala,22.582330227634834,88.35492645261421,Gujarati Hotel,Gujarati Restaurant,22.577459674151324,88.3499094056604
255,Bartala,22.582330227634834,88.35492645261421,Victoria Memorial Grounds,Park,22.585984051663708,88.36312391988584
256,Bartala,22.582330227634834,88.35492645261421,Girish Park Metro Station,Metro Station,22.587214880108064,88.36296273378147
257,Baruipur,22.359840000000077,88.43262000000004,Apollo Pharmacy,Pharmacy,22.3602847,88.4322728
258,Baruipur,22.359840000000077,88.43262000000004,Apollo Pharmacy,Pharmacy,22.3561629,88.4347647
259,Baruipur,22.359840000000077,88.43262000000004,HDFC Bank ATM,ATM,22.355774,88.435363
260,Baruipur,22.359840000000077,88.43262000000004,Apollo Pharmacy,Pharmacy,22.3655125,88.4290876
261,Batanagar,22.50855000000007,88.22533000000004,State Bank of India ATM,ATM,22.5132689,88.2229909
262,Batanagar,22.50855000000007,88.22533000000004,State Bank of India ATM,ATM,22.5132689,88.2229909
263,Batanagar,22.50855000000007,88.22533000000004,Axis Bank ATM,ATM,22.50096,88.22546
264,Batanagar,22.50855000000007,88.22533000000004,Nungi Railway Station,Train Station,22.50026645535104,88.22339057922363
265,Batanagar,22.50855000000007,88.22533000000004,Arik Grapic Studio,Photography Studio,22.50031006866864,88.22225868701935
266,Behala,22.502110000000073,88.31834000000003,Haji Saheb,Mughlai Restaurant,22.499909618104592,88.31728935241699
267,Behala,22.502110000000073,88.31834000000003,Ajanta Cinema Hall,Movie Theater,22.508115609451067,88.32087261806255
268,Behala,22.502110000000073,88.31834000000003,Tandoori Darbar,Mughlai Restaurant,22.497728926041635,88.31694602966309
269,Behala,22.502110000000073,88.31834000000003,Baazar Kolkata,Clothing Store,22.507383183705056,88.31995010375977
270,Belgachia,22.604720000000043,88.38647000000003,Kolkata Station,Train Station,22.601194549899578,88.38413000106812
271,Belgachia,22.604720000000043,88.38647000000003,Belgachia Metro Railway Station,Metro Station,22.607465744018555,88.39106750488281
272,Belgachia,22.604720000000043,88.38647000000003,Tala Railway Station,Train Station,22.60584976716627,88.37945222854614
273,Belgachia,22.604720000000043,88.38647000000003,Tala Park,Park,22.611158503585422,88.38438749313354
274,Belgachia,22.604720000000043,88.38647000000003,Milk Colony,Bus Station,22.607710458223345,88.39468583942484
275,Belgharia,22.670250000000067,88.38575000000003,Rasui,Indian Restaurant,22.66419998478993,88.37902623935865
276,Belgharia,22.670250000000067,88.38575000000003,"Royal Enfield Service Center, B.O.C.",Auto Workshop,22.67763,88.38039
277,Belgharia,22.670250000000067,88.38575000000003,Royal Enfield Service Center,Motorcycle Shop,22.67763,88.38039
278,Belgharia,22.670250000000067,88.38575000000003,"Royal Enfield, B.O.C.",Motorcycle Shop,22.671736,88.376175
279,Beliaghata,22.564260000000047,88.40312000000006,Hyatt Regency Kolkata,Hotel,22.570357866885754,88.40531937782346
280,Beliaghata,22.564260000000047,88.40312000000006,INOX,Multiplex,22.570893097865817,88.40102591127794
281,Beliaghata,22.564260000000047,88.40312000000006,La Cucina,Italian Restaurant,22.570969726120627,88.40535764280777
282,Beliaghata,22.564260000000047,88.40312000000006,Waterside Cafe,Café,22.570363182688432,88.40535279113438
283,Beliaghata,22.564260000000047,88.40312000000006,Yuvabharati Krirangan (Salt Lake Stadium),Soccer Stadium,22.56919708275973,88.4082323727846
284,Beliaghata,22.564260000000047,88.40312000000006,Charnock City,Indian Restaurant,22.567351538075286,88.41120493536599
285,Beliaghata,22.564260000000047,88.40312000000006,Subway,Sandwich Place,22.56960456004155,88.41040131719188
286,Beliaghata,22.564260000000047,88.40312000000006,Woodland Original,Clothing Store,22.56555655431872,88.40098598071059
287,Beliaghata,22.564260000000047,88.40312000000006,Subhas Sarovar,Scenic Lookout,22.567589653908193,88.40357208792268
288,Beliaghata,22.564260000000047,88.40312000000006,Brand Factory,Convenience Store,22.56325361426019,88.40728282928465
289,Beliaghata,22.564260000000047,88.40312000000006,The Pearl Hotel,Bed & Breakfast,22.569062119924748,88.40442935295042
290,Beliaghata,22.564260000000047,88.40312000000006,Swimming Pool,Hotel Pool,22.570244178643698,88.4054011211595
291,Beliaghata,22.564260000000047,88.40312000000006,Gucchi,Indian Restaurant,22.570580099653228,88.40530335903168
292,Beliaghata,22.564260000000047,88.40312000000006,Beer Republic,Beer Bar,22.570941707848476,88.40123176574707
293,Beliaghata,22.564260000000047,88.40312000000006,KK's Fusion,Food,22.570878698317156,88.40098618457206
294,Beliaghata,22.564260000000047,88.40312000000006,The Blue Poppy,Tibetan Restaurant,22.56464067314927,88.41071605682373
295,Beliaghata,22.564260000000047,88.40312000000006,The Bar,Bar,22.57159442335056,88.40526765640105
296,Beliaghata,22.564260000000047,88.40312000000006,Hotel The Sojourn,Hotel,22.566729205480982,88.41108673353504
297,"Belur, West Bengal",22.57054000000005,88.37124000000006,Big Bazaar,Department Store,22.565918736488236,88.36963534355162
298,"Belur, West Bengal",22.57054000000005,88.37124000000006,Bhim Chandra Nag,Indian Sweet Shop,22.570638822213024,88.37152372833114
299,"Belur, West Bengal",22.57054000000005,88.37124000000006,Indian Coffee House,Café,22.576186678115835,88.36401300379693
300,"Belur, West Bengal",22.57054000000005,88.37124000000006,College Square,Plaza,22.57474596671362,88.36389541625975
301,"Belur, West Bengal",22.57054000000005,88.37124000000006,Paramount,Juice Bar,22.573874166664815,88.3644962310791
302,"Belur, West Bengal",22.57054000000005,88.37124000000006,Café Coffee Day,Café,22.565918736488236,88.36963534355162
303,"Belur, West Bengal",22.57054000000005,88.37124000000006,Sealdah Railway Station,Train Station,22.56796955755306,88.3711266517639
304,"Belur, West Bengal",22.57054000000005,88.37124000000006,Sealdah Rajdhani,Platform,22.568173374957258,88.37283664335622
305,"Belur, West Bengal",22.57054000000005,88.37124000000006,Santosh Mitra Square,Park,22.56600790325582,88.36571931838989
306,Beniapukur,22.549000000000035,88.36688000000004,Shiraz Golden Restaurant,Mughlai Restaurant,22.546535533549203,88.3616544965681
307,Beniapukur,22.549000000000035,88.36688000000004,Arsalan,Mughlai Restaurant,22.543709081202824,88.36599388000617
308,Beniapukur,22.549000000000035,88.36688000000004,Daawat E Shiraz,Indian Restaurant,22.546625858440795,88.36163055502526
309,Beniapukur,22.549000000000035,88.36688000000004,8th Day Cafe & Bakery,Café,22.54240650553313,88.36098124876465
310,Beniapukur,22.549000000000035,88.36688000000004,Arsalan,Mughlai Restaurant,22.541732599409258,88.36340188980103
311,Beniapukur,22.549000000000035,88.36688000000004,Mocha,Café,22.543133469563905,88.36059097663687
312,Beniapukur,22.549000000000035,88.36688000000004,Jhaal Farezi,Café,22.542485693431733,88.3649468421936
313,Beniapukur,22.549000000000035,88.36688000000004,Kala Mandir,Performing Arts Venue,22.543972894972143,88.35958242789663
314,Beniapukur,22.549000000000035,88.36688000000004,Park Circus Maidan,Park,22.54298114778473,88.36870193481445
315,Beniapukur,22.549000000000035,88.36688000000004,Charcoal Grill,Indian Restaurant,22.541029047334092,88.36778461933136
316,Beniapukur,22.549000000000035,88.36688000000004,Fortune Select,Hotel,22.548076230005094,88.35818016332627
317,Beniapukur,22.549000000000035,88.36688000000004,Park Circus 7 Point Crossing,Plaza,22.543298237637355,88.36616992950438
318,Beniapukur,22.549000000000035,88.36688000000004,Krazy Kebab,Asian Restaurant,22.541396879065246,88.37046199169116
319,Beniapukur,22.549000000000035,88.36688000000004,Hotel Executive Tower,Hotel,22.555790623194284,88.37213990280695
320,Beniapukur,22.549000000000035,88.36688000000004,Ananda Palit,Bus Station,22.55568121817436,88.37250012381388
321,"Bhadrakali, Hooghly",22.676550000000077,88.35069000000004,Reliance Fresh,Convenience Store,22.669408,88.351286
322,"Bhadrakali, Hooghly",22.676550000000077,88.35069000000004,Axis Bank ATM,ATM,22.68078994751,88.343353271484
323,"Bhadrakali, Hooghly",22.676550000000077,88.35069000000004,KFC,Restaurant,22.66926,88.34552
324,"Bhadreswar, Hooghly",22.812190000000044,88.35263000000003,Axis Bank ATM,ATM,22.812189102173,88.352630615234
325,Bhandardaha,22.616940000000056,88.21444000000008,HDFC Bank ATM,ATM,22.616741,88.210894
326,Bhandardaha,22.616940000000056,88.21444000000008,HDFC Bank ATM,ATM,22.616741,88.210894
327,Bhandardaha,22.616940000000056,88.21444000000008,Axis Bank ATM,ATM,22.61694,88.2104
328,Bhangar Raghunathpur,22.620990000000063,88.42843000000005,KFC,Fried Chicken Joint,22.61836455157655,88.43203268807126
329,Bhangar Raghunathpur,22.620990000000063,88.42843000000005,"Big Bazaar, VIP Road",Department Store,22.6169463539868,88.43192761110498
330,Bhangar Raghunathpur,22.620990000000063,88.42843000000005,Haldiram's Prabhuji,Snack Place,22.62809358799676,88.43290328979492
331,Bhangar Raghunathpur,22.620990000000063,88.42843000000005,O-Zone,Bar,22.617045925728174,88.43151676753456
332,Bhangar Raghunathpur,22.620990000000063,88.42843000000005,The Circle Club,Athletics & Sports,22.62687677203941,88.43355674744848
333,Bhangar Raghunathpur,22.620990000000063,88.42843000000005,VIP Sweets,Indian Sweet Shop,22.612899236846683,88.42920214876953
334,"Bhasa, Bishnupur",22.405320000000074,88.26687000000004,Bisharpara Kodalia Railway Station,Train Station,22.40343089104509,88.26046591882175
335,Bhatpara,22.505180000000053,88.23032000000006,HDFC Bank ATM,ATM,22.499146,88.23048
336,Bhatpara,22.505180000000053,88.23032000000006,Axis Bank ATM,ATM,22.50096,88.22546
337,Bhatpara,22.505180000000053,88.23032000000006,Nungi Railway Station,Train Station,22.50026645535104,88.22339057922363
338,Bhatpara,22.505180000000053,88.23032000000006,Arik Grapic Studio,Photography Studio,22.50031006866864,88.22225868701935
339,Bhowanipore,22.535480000000064,88.34623000000005,Balwant Singh's Eating House,Dhaba,22.537714013534053,88.34421978219828
340,Bhowanipore,22.535480000000064,88.34623000000005,Balaram Mullick & Radharaman Mullick,Indian Sweet Shop,22.53309675113572,88.34708213260403
341,Bhowanipore,22.535480000000064,88.34623000000005,Oh! Calcutta,Bengali Restaurant,22.53835691442138,88.35140625118088
342,Bhowanipore,22.535480000000064,88.34623000000005,Jai Hind Dhaba,Dhaba,22.533109206899187,88.35326750112607
343,Bhowanipore,22.535480000000064,88.34623000000005,Tyre Patty,Café,22.538047883894258,88.34916916320414
344,Bhowanipore,22.535480000000064,88.34623000000005,TGI Fridays,American Restaurant,22.538591688992373,88.3513984332749
345,Bhowanipore,22.535480000000064,88.34623000000005,Balwant Singh's Snack Corner,Fast Food Restaurant,22.537708685771694,88.34422786780709
346,Bhowanipore,22.535480000000064,88.34623000000005,Privy Ultra Lounge,Nightclub,22.538145062632534,88.35112105873428
347,Bhowanipore,22.535480000000064,88.34623000000005,Underground,Nightclub,22.54129002888685,88.35062863439614
348,Bhowanipore,22.535480000000064,88.34623000000005,Hotel Hindusthan International,Hotel,22.541075138603233,88.35048995950599
349,Bhowanipore,22.535480000000064,88.34623000000005,The French Loaf,Bakery,22.539240423448703,88.35492074489594
350,Bhowanipore,22.535480000000064,88.34623000000005,Picadilly Square,Café,22.538270555260876,88.35448772169569
351,Bhowanipore,22.535480000000064,88.34623000000005,The Bikers Cafe,American Restaurant,22.537719331717604,88.34899306297302
352,Bhowanipore,22.535480000000064,88.34623000000005,Subway,Sandwich Place,22.540684109914253,88.35238825392982
353,Bhowanipore,22.535480000000064,88.34623000000005,Mythh,Restaurant,22.540910136769966,88.35167527198792
354,Bhowanipore,22.535480000000064,88.34623000000005,Forum Mall,Shopping Mall,22.53860126968133,88.35111737251282
355,Bhowanipore,22.535480000000064,88.34623000000005,Inox,Multiplex,22.538450321858086,88.35138027670322
356,Bhowanipore,22.535480000000064,88.34623000000005,Kaidi Kitchen,Theme Restaurant,22.54246587522062,88.35158944129944
357,Bhowanipore,22.535480000000064,88.34623000000005,Nandan,Indie Theater,22.54203418857059,88.34543976955383
358,Bhowanipore,22.535480000000064,88.34623000000005,Cafe Mezzuna,Italian Restaurant,22.53835753027732,88.35143268133186
359,Bhowanipore,22.535480000000064,88.34623000000005,McDonald's,Fast Food Restaurant,22.53620636516543,88.34635260366345
360,Bhowanipore,22.535480000000064,88.34623000000005,Chai Break,Tea Room,22.539381735917196,88.34706981626309
361,Bhowanipore,22.535480000000064,88.34623000000005,Rabindra Sadan,Performing Arts Venue,22.541940691589424,88.34484100341797
362,Bhowanipore,22.535480000000064,88.34623000000005,Academy of Fine Arts,Art Gallery,22.543274617942025,88.34513848166002
363,Bhowanipore,22.535480000000064,88.34623000000005,Cafe Coffee Day,Café,22.538541813366496,88.35195422172546
364,Bhowanipore,22.535480000000064,88.34623000000005,Pan Asia Continental Hotel,Hotel,22.533065255776958,88.35318837854379
365,Bhowanipore,22.535480000000064,88.34623000000005,Haldiram Food City,Food Court,22.541747694325462,88.34752378349883
366,Bhowanipore,22.535480000000064,88.34623000000005,Ajanta Hotel,Vegetarian / Vegan Restaurant,22.53231362258056,88.34984064102173
367,Bhowanipore,22.535480000000064,88.34623000000005,Shoppers Stop,Department Store,22.53835353486725,88.35131049156189
368,Bhowanipore,22.535480000000064,88.34623000000005,Exide Crossing,Plaza,22.54157405277572,88.34726572036743
369,Bidhannagar,22.591510000000028,88.41680000000008,Saltlake Swimming Pool,Pool,22.594505174068924,88.41481965536767
370,Bidhannagar,22.591510000000028,88.41680000000008,Sharma Tea,Tea Room,22.595033898960587,88.41920357743031
371,Bidhannagar,22.591510000000028,88.41680000000008,Subway,Sandwich Place,22.59514491070518,88.41736051040054
372,Bidhannagar,22.591510000000028,88.41680000000008,6 Ballygunge Place,Bengali Restaurant,22.590298708111384,88.40925335653736
373,Bidhannagar,22.591510000000028,88.41680000000008,Crossword Bookstores Ltd,Bookstore,22.58764400020678,88.40836644172668
374,Bidhannagar,22.591510000000028,88.41680000000008,City Centre,Shopping Mall,22.587921364007034,88.4080982208252
375,Bidhannagar,22.591510000000028,88.41680000000008,The Darjeeling,Tibetan Restaurant,22.5887336404945,88.40947151184082
376,Bidhannagar,22.591510000000028,88.41680000000008,Pizza Hut,Pizza Place,22.58815641274625,88.40843127616512
377,Bidhannagar,22.591510000000028,88.41680000000008,Wow! Momo,Dumpling Restaurant,22.587970893198296,88.4080982208252
378,Bidhannagar,22.591510000000028,88.41680000000008,Kookie Jar,Bakery,22.588183881407165,88.40794698052503
379,Bidhannagar,22.591510000000028,88.41680000000008,Ground Zero,Hookah Bar,22.583652356081743,88.41672940312995
380,Bidhannagar,22.591510000000028,88.41680000000008,Chowman,Chinese Restaurant,22.595020921014328,88.41919569332309
381,Bidhannagar,22.591510000000028,88.41680000000008,Hide Cafe,Café,22.597351400827435,88.41532945632935
382,Bidhannagar,22.591510000000028,88.41680000000008,Starbucks,Coffee Shop,22.587949100235413,88.40811967849731
383,Bidhannagar,22.591510000000028,88.41680000000008,Haka,Chinese Restaurant,22.587956034442776,88.4081518650055
384,Bidhannagar,22.591510000000028,88.41680000000008,Kaafila,Indian Restaurant,22.587875336070045,88.40837418355459
385,Bidhannagar,22.591510000000028,88.41680000000008,Domino's Pizza,Pizza Place,22.59500460022166,88.41921540367981
386,Bidhannagar,22.591510000000028,88.41680000000008,Cafe Coffee Day,Café,22.59290146771765,88.4202880464928
387,Bidhannagar,22.591510000000028,88.41680000000008,The Sonnet,Hotel,22.589370934634736,88.4114631234333
388,Bidhannagar,22.591510000000028,88.41680000000008,Cafe Coffee Day,Café,22.587764476850396,88.4080746801794
389,Bidhannagar,22.591510000000028,88.41680000000008,Inox,Multiplex,22.58856126993417,88.40842263136872
390,Bidhannagar,22.591510000000028,88.41680000000008,Copper Chimney,Indian Restaurant,22.58835679259895,88.40879518212589
391,Bidhannagar,22.591510000000028,88.41680000000008,Café Coffee Day,Café,22.58263154385241,88.41711044311523
392,Bidhannagar,22.591510000000028,88.41680000000008,Azad Hind Restaurant,Dhaba,22.591835330154563,88.4160078638378
393,Bidhannagar,22.591510000000028,88.41680000000008,Afraa Creperie,Café,22.58796098736148,88.40816259384155
394,Bidhannagar,22.591510000000028,88.41680000000008,Kobe Sizzlers,Diner,22.589055089111852,88.40902245568782
395,Bidhannagar,22.591510000000028,88.41680000000008,Big Bazaar,Department Store,22.58354830847126,88.41754301259155
396,Bidhannagar,22.591510000000028,88.41680000000008,HangOut,Food Court,22.588050139867278,88.40826988220213
397,Bidhannagar,22.591510000000028,88.41680000000008,Oudh 1590,Awadhi Restaurant,22.59449492024822,88.41483856107236
398,Bidhannagar,22.591510000000028,88.41680000000008,The Scoop,Fast Food Restaurant,22.594481867336818,88.41478979097684
399,Bidyadharpur,22.50971000000004,88.37991000000005,Cafe Coffee Day,Café,22.515054566988802,88.3866834640503
400,Bidyadharpur,22.50971000000004,88.37991000000005,State Bank of India ATM,ATM,22.5108895,88.3764183
401,Bidyadharpur,22.50971000000004,88.37991000000005,Dhakuria Railway Station,Train Station,22.509415051468398,88.37119102478027
402,Bidyadharpur,22.50971000000004,88.37991000000005,Azad Hind Dhaba,Dhaba,22.517988213435785,88.37644815444946
403,Bijoygarh,22.487730000000056,88.36536000000007,Denzong Kitchen,Dumpling Restaurant,22.48682495014734,88.3613634109497
404,Bijoygarh,22.487730000000056,88.36536000000007,Cafe Coffee Day,Café,22.489600589164827,88.36124539375305
405,Bijoygarh,22.487730000000056,88.36536000000007,Cafe Coffee Day,Café,22.490272700936092,88.37289351963958
406,Bijoygarh,22.487730000000056,88.36536000000007,Central Park,Park,22.493006882391946,88.36229901996
407,Bijoygarh,22.487730000000056,88.36536000000007,Calcutta Bistro,Bistro,22.49186071124546,88.37213516235352
408,Bikramgarh,22.497300000000052,88.35919000000007,Subway,Sandwich Place,22.501666871898916,88.36178700519184
409,Bikramgarh,22.497300000000052,88.35919000000007,Mainland China,Chinese Restaurant,22.5016520957947,88.36169921050062
410,Bikramgarh,22.497300000000052,88.35919000000007,Starmark,Bookstore,22.50160473533416,88.36172554894057
411,Bikramgarh,22.497300000000052,88.35919000000007,South City Mall,Shopping Mall,22.501757795323314,88.36172644899912
412,Bikramgarh,22.497300000000052,88.35919000000007,Shoppers Stop,Clothing Store,22.501683272951343,88.36175855969086
413,Bikramgarh,22.497300000000052,88.35919000000007,Spencer's Hyper,Department Store,22.501436082093846,88.36166381835938
414,Bikramgarh,22.497300000000052,88.35919000000007,Royal Calcutta Golf Club (RCGC),Golf Course,22.494599652615197,88.35106648888241
415,Bikramgarh,22.497300000000052,88.35919000000007,Starbucks,Coffee Shop,22.501475730284696,88.36181402206421
416,Bikramgarh,22.497300000000052,88.35919000000007,Pantaloons,Clothing Store,22.50172475066913,88.36176604536132
417,Bikramgarh,22.497300000000052,88.35919000000007,Inox,Multiplex,22.501690228399905,88.36174064959422
418,Bikramgarh,22.497300000000052,88.35919000000007,Momo I Am,Dumpling Restaurant,22.50305005004157,88.35818376681533
419,Bikramgarh,22.497300000000052,88.35919000000007,Flame & Grill,Indian Restaurant,22.50155257997716,88.36162705081131
420,Bikramgarh,22.497300000000052,88.35919000000007,KFC,Fast Food Restaurant,22.50166364022333,88.36171297401805
421,Bikramgarh,22.497300000000052,88.35919000000007,Chili's Grill & Bar,Tex-Mex Restaurant,22.501470285760472,88.36111450240416
422,Bikramgarh,22.497300000000052,88.35919000000007,Cafe Coffee Day,Café,22.50314986471064,88.35736155509949
423,Bikramgarh,22.497300000000052,88.35919000000007,Cafe Coffee Day,Café,22.501416257994165,88.36196422576904
424,Bikramgarh,22.497300000000052,88.35919000000007,Cafe Coffee Day,Café,22.489600589164827,88.36124539375305
425,Bikramgarh,22.497300000000052,88.35919000000007,Abar Boithak - The Coffee Shop,Coffee Shop,22.504434444455406,88.36317121982574
426,Bikramgarh,22.497300000000052,88.35919000000007,Domino's Pizza,Pizza Place,22.50217948378093,88.36412072181702
427,Bikramgarh,22.497300000000052,88.35919000000007,Lords More,Plaza,22.50199880041536,88.35809842331874
428,Bikramgarh,22.497300000000052,88.35919000000007,Cafe Coffee Day,Café,22.501691442597856,88.36176025289267
429,Bikramgarh,22.497300000000052,88.35919000000007,Cafe Mezzuna,Italian Restaurant,22.50137660978627,88.36196422576904
430,Bikramgarh,22.497300000000052,88.35919000000007,Marks & Spencer,Clothing Store,22.501677838036727,88.36176330065754
431,Birati,22.669030000000078,88.44117000000006,MedPlus,Pharmacy,22.668608,88.443088
432,Birati,22.669030000000078,88.44117000000006,Axis Bank ATM,ATM,22.671852111816,88.442268371582
433,Birati,22.669030000000078,88.44117000000006,Axis Bank ATM,ATM,22.668,88.44475
434,Birati,22.669030000000078,88.44117000000006,Bhajohari Ranna,Asian Restaurant,22.6618296758145,88.44102480390356
435,Birlapur,22.54595000000006,88.34747000000004,Victoria Memorial,History Museum,22.545844129353117,88.34289036897952
436,Birlapur,22.54595000000006,88.34747000000004,The Blue Poppy,Asian Restaurant,22.548543210513543,88.35135293517806
437,Birlapur,22.54595000000006,88.34747000000004,Maidan,Field,22.549906,88.344219
438,Birlapur,22.54595000000006,88.34747000000004,Monkey Bar,Gastropub,22.544285918954575,88.3519599306665
439,Birlapur,22.54595000000006,88.34747000000004,Kenilworth Hotel,Hotel,22.546210731755366,88.35013317795007
440,Birlapur,22.54595000000006,88.34747000000004,Underground,Nightclub,22.54129002888685,88.35062863439614
441,Birlapur,22.54595000000006,88.34747000000004,Plush,Nightclub,22.545646661681943,88.35183620452881
442,Birlapur,22.54595000000006,88.34747000000004,Peter Cat,Indian Restaurant,22.552364717378428,88.35254430770874
443,Birlapur,22.54595000000006,88.34747000000004,Hotel Hindusthan International,Hotel,22.541075138603233,88.35048995950599
444,Birlapur,22.54595000000006,88.34747000000004,Oh! Calcutta,Bengali Restaurant,22.53835691442138,88.35140625118088
445,Birlapur,22.54595000000006,88.34747000000004,Balwant Singh's Eating House,Dhaba,22.537714013534053,88.34421978219828
446,Birlapur,22.54595000000006,88.34747000000004,Jyoti Vihar,South Indian Restaurant,22.547306629270533,88.35053458208507
447,Birlapur,22.54595000000006,88.34747000000004,Flurys,Bakery,22.552786429700397,88.35262520281624
448,Birlapur,22.54595000000006,88.34747000000004,Fire N Ice,Italian Restaurant,22.54940945481822,88.34947060482715
449,Birlapur,22.54595000000006,88.34747000000004,Bar-B-Q,BBQ Joint,22.55312518463798,88.35262477397919
450,Birlapur,22.54595000000006,88.34747000000004,TGI Fridays,American Restaurant,22.538591688992373,88.3513984332749
451,Birlapur,22.54595000000006,88.34747000000004,Bombay Shiv Sagar,Indian Restaurant,22.54657809306256,88.35334897041321
452,Birlapur,22.54595000000006,88.34747000000004,Oxford Bookstore,Bookstore,22.55365167988345,88.35173187860914
453,Birlapur,22.54595000000006,88.34747000000004,Kaidi Kitchen,Theme Restaurant,22.54246587522062,88.35158944129944
454,Birlapur,22.54595000000006,88.34747000000004,Marco Polo,Chinese Restaurant,22.55147694425327,88.35382711655352
455,Birlapur,22.54595000000006,88.34747000000004,Trincas Tavern,Indian Restaurant,22.553882322238696,88.3515063146341
456,Birlapur,22.54595000000006,88.34747000000004,Vardaan Shopping Market,Shopping Mall,22.54819321981021,88.35381031036377
457,Birlapur,22.54595000000006,88.34747000000004,Mythh,Restaurant,22.540910136769966,88.35167527198792
458,Birlapur,22.54595000000006,88.34747000000004,Tantra,Nightclub,22.55384263258614,88.35145864272103
459,Birlapur,22.54595000000006,88.34747000000004,Amigos TexMex Restaurant,Mexican Restaurant,22.54733116064669,88.35080623626709
460,Birlapur,22.54595000000006,88.34747000000004,Subway,Sandwich Place,22.540684109914253,88.35238825392982
461,Birlapur,22.54595000000006,88.34747000000004,Tyre Patty,Café,22.538047883894258,88.34916916320414
462,Birlapur,22.54595000000006,88.34747000000004,Privy Ultra Lounge,Nightclub,22.538145062632534,88.35112105873428
463,Birlapur,22.54595000000006,88.34747000000004,Nandan,Indie Theater,22.54203418857059,88.34543976955383
464,Birlapur,22.54595000000006,88.34747000000004,One Step Up,Restaurant,22.55303985551416,88.3523720588708
465,"Bishnupur, South 24 Parganas",22.405320000000074,88.26687000000004,Bisharpara Kodalia Railway Station,Train Station,22.40343089104509,88.26046591882175
466,Bow Barracks,22.57036000000005,88.35603000000003,Anand Restaurant,South Indian Restaurant,22.56733155298006,88.354895689176
467,Bow Barracks,22.57036000000005,88.35603000000003,Lalit Great Eastern Hotel,Hotel,22.56796710486943,88.35001000801633
468,Bow Barracks,22.57036000000005,88.35603000000003,Amber,Indian Restaurant,22.567543544093432,88.35184693336487
469,Bow Barracks,22.57036000000005,88.35603000000003,Esplanade,Neighborhood,22.564244372033293,88.35230827331543
470,Bow Barracks,22.57036000000005,88.35603000000003,New Aliah Hotel & Caterer,Mughlai Restaurant,22.567537194306293,88.35243692856844
471,Bow Barracks,22.57036000000005,88.35603000000003,Nizam's,Mughlai Restaurant,22.56184369778313,88.3535812160456
472,Bow Barracks,22.57036000000005,88.35603000000003,Cafe Coffee Day,Café,22.567637663459436,88.35610091686249
473,Bow Barracks,22.57036000000005,88.35603000000003,K. C. Das,Indian Sweet Shop,22.565434244831792,88.35166743562479
474,Bow Barracks,22.57036000000005,88.35603000000003,College Square,Plaza,22.57474596671362,88.36389541625975
475,Bow Barracks,22.57036000000005,88.35603000000003,Paramount,Juice Bar,22.573874166664815,88.3644962310791
476,Bow Barracks,22.57036000000005,88.35603000000003,Subway,Sandwich Place,22.561826910561027,88.3552211523056
477,Bow Barracks,22.57036000000005,88.35603000000003,Broadway Hotel,Hotel,22.568108259325605,88.35597753524779
478,Bow Barracks,22.57036000000005,88.35603000000003,Aminia,Mughlai Restaurant,22.56234788552488,88.35363045600486
479,Bow Barracks,22.57036000000005,88.35603000000003,Chandni Chowk Market,Flea Market,22.56661118962308,88.35588891639183
480,Bow Barracks,22.57036000000005,88.35603000000003,Kaka Tea,Breakfast Spot,22.56951679412061,88.35113287796466
481,Bow Barracks,22.57036000000005,88.35603000000003,Bakery & Wilson's,Bakery,22.568417407456767,88.35050691971271
482,Bow Barracks,22.57036000000005,88.35603000000003,Bhikharam Sweets & Snacks,Vegetarian / Vegan Restaurant,22.57723804649535,88.35553804009835
483,Bow Barracks,22.57036000000005,88.35603000000003,Putiram,Breakfast Spot,22.573943514597858,88.3636486530304
484,Bow Barracks,22.57036000000005,88.35603000000003,Md. Ali Park,Park,22.57750002609193,88.36071968078613
485,Bowali,22.57054000000005,88.37124000000006,Big Bazaar,Department Store,22.565918736488236,88.36963534355162
486,Bowali,22.57054000000005,88.37124000000006,Bhim Chandra Nag,Indian Sweet Shop,22.570638822213024,88.37152372833114
487,Bowali,22.57054000000005,88.37124000000006,Indian Coffee House,Café,22.576186678115835,88.36401300379693
488,Bowali,22.57054000000005,88.37124000000006,College Square,Plaza,22.57474596671362,88.36389541625975
489,Bowali,22.57054000000005,88.37124000000006,Paramount,Juice Bar,22.573874166664815,88.3644962310791
490,Bowali,22.57054000000005,88.37124000000006,Café Coffee Day,Café,22.565918736488236,88.36963534355162
491,Bowali,22.57054000000005,88.37124000000006,Sealdah Railway Station,Train Station,22.56796955755306,88.3711266517639
492,Bowali,22.57054000000005,88.37124000000006,Sealdah Rajdhani,Platform,22.568173374957258,88.37283664335622
493,Bowali,22.57054000000005,88.37124000000006,Santosh Mitra Square,Park,22.56600790325582,88.36571931838989
494,Bowbazar,22.566280000000063,88.36116000000004,Anand Restaurant,South Indian Restaurant,22.56733155298006,88.354895689176
495,Bowbazar,22.566280000000063,88.36116000000004,Esplanade,Neighborhood,22.564244372033293,88.35230827331543
496,Bowbazar,22.566280000000063,88.36116000000004,Nizam's,Mughlai Restaurant,22.56184369778313,88.3535812160456
497,Bowbazar,22.566280000000063,88.36116000000004,Amber,Indian Restaurant,22.567543544093432,88.35184693336487
498,Bowbazar,22.566280000000063,88.36116000000004,Big Bazaar,Department Store,22.565918736488236,88.36963534355162
499,Bowbazar,22.566280000000063,88.36116000000004,College Square,Plaza,22.57474596671362,88.36389541625975
500,Bowbazar,22.566280000000063,88.36116000000004,Cafe Coffee Day,Café,22.567637663459436,88.35610091686249
501,Bowbazar,22.566280000000063,88.36116000000004,New Aliah Hotel & Caterer,Mughlai Restaurant,22.567537194306293,88.35243692856844
502,Bowbazar,22.566280000000063,88.36116000000004,Paramount,Juice Bar,22.573874166664815,88.3644962310791
503,Bowbazar,22.566280000000063,88.36116000000004,Subway,Sandwich Place,22.561826910561027,88.3552211523056
504,Bowbazar,22.566280000000063,88.36116000000004,K. C. Das,Indian Sweet Shop,22.565434244831792,88.35166743562479
505,Bowbazar,22.566280000000063,88.36116000000004,Café Coffee Day,Café,22.565918736488236,88.36963534355162
506,Bowbazar,22.566280000000063,88.36116000000004,Aminia,Mughlai Restaurant,22.56234788552488,88.35363045600486
507,Bowbazar,22.566280000000063,88.36116000000004,Santosh Mitra Square,Park,22.56600790325582,88.36571931838989
508,Bowbazar,22.566280000000063,88.36116000000004,Broadway Hotel,Hotel,22.568108259325605,88.35597753524779
509,Bowbazar,22.566280000000063,88.36116000000004,Chandni Chowk Market,Flea Market,22.56661118962308,88.35588891639183
510,Bowbazar,22.566280000000063,88.36116000000004,Entally Market,Market,22.55995198852979,88.36669830431751
511,"Brahmapur, West Bengal",22.45882000000006,88.36615000000006,Kitchen King,Indian Restaurant,22.459507,88.36458
512,"Brahmapur, West Bengal",22.45882000000006,88.36615000000006,State Bank of India ATM,ATM,22.4557057,88.3683659
513,Budge Budge,22.510967487529356,88.28406574401545,State Bank of India ATM,ATM,22.505309,88.284208
514,Budge Budge,22.510967487529356,88.28406574401545,Jinjira Bazar,Market,22.514311734032358,88.29095687504542
515,Buita,22.57054000000005,88.37124000000006,Big Bazaar,Department Store,22.565918736488236,88.36963534355162
516,Buita,22.57054000000005,88.37124000000006,Bhim Chandra Nag,Indian Sweet Shop,22.570638822213024,88.37152372833114
517,Buita,22.57054000000005,88.37124000000006,Indian Coffee House,Café,22.576186678115835,88.36401300379693
518,Buita,22.57054000000005,88.37124000000006,College Square,Plaza,22.57474596671362,88.36389541625975
519,Buita,22.57054000000005,88.37124000000006,Paramount,Juice Bar,22.573874166664815,88.3644962310791
520,Buita,22.57054000000005,88.37124000000006,Café Coffee Day,Café,22.565918736488236,88.36963534355162
521,Buita,22.57054000000005,88.37124000000006,Sealdah Railway Station,Train Station,22.56796955755306,88.3711266517639
522,Buita,22.57054000000005,88.37124000000006,Sealdah Rajdhani,Platform,22.568173374957258,88.37283664335622
523,Buita,22.57054000000005,88.37124000000006,Santosh Mitra Square,Park,22.56600790325582,88.36571931838989
524,Burrabazar,22.579630000000066,88.35260000000005,Jorasankho Thakur-Bari,History Museum,22.584401229707083,88.35952553409135
525,Burrabazar,22.579630000000066,88.35260000000005,Marble Palace,Art Museum,22.582444043602294,88.36018454941356
526,Burrabazar,22.579630000000066,88.35260000000005,Royal Indian Hotel,Indian Restaurant,22.57949123617736,88.35665345191956
527,Burrabazar,22.579630000000066,88.35260000000005,Gujarati Hotel,Gujarati Restaurant,22.577459674151324,88.3499094056604
528,Burrabazar,22.579630000000066,88.35260000000005,Bhikharam Sweets & Snacks,Vegetarian / Vegan Restaurant,22.57723804649535,88.35553804009835
529,Burrabazar,22.579630000000066,88.35260000000005,Rabindra Bharati Museum,Museum,22.58503469764741,88.35901348647492
530,Burrabazar,22.579630000000066,88.35260000000005,Lal Dighi,Lake,22.57187296842228,88.34915399551392
531,Burtolla,22.57054000000005,88.37124000000006,Big Bazaar,Department Store,22.565918736488236,88.36963534355162
532,Burtolla,22.57054000000005,88.37124000000006,Bhim Chandra Nag,Indian Sweet Shop,22.570638822213024,88.37152372833114
533,Burtolla,22.57054000000005,88.37124000000006,Indian Coffee House,Café,22.576186678115835,88.36401300379693
534,Burtolla,22.57054000000005,88.37124000000006,College Square,Plaza,22.57474596671362,88.36389541625975
535,Burtolla,22.57054000000005,88.37124000000006,Paramount,Juice Bar,22.573874166664815,88.3644962310791
536,Burtolla,22.57054000000005,88.37124000000006,Café Coffee Day,Café,22.565918736488236,88.36963534355162
537,Burtolla,22.57054000000005,88.37124000000006,Sealdah Railway Station,Train Station,22.56796955755306,88.3711266517639
538,Burtolla,22.57054000000005,88.37124000000006,Sealdah Rajdhani,Platform,22.568173374957258,88.37283664335622
539,Burtolla,22.57054000000005,88.37124000000006,Santosh Mitra Square,Park,22.56600790325582,88.36571931838989
540,Calcutta International School,22.52010000000007,88.39951000000008,Acropolis Mall,Shopping Mall,22.51482318507145,88.3932354886466
541,Calcutta International School,22.52010000000007,88.39951000000008,Punjabee Rasoi,Dhaba,22.51597357459245,88.39254452917326
542,Calcutta International School,22.52010000000007,88.39951000000008,Balaram Mullick & Radharaman Mullick,Indian Sweet Shop,22.513985788455038,88.39743811965602
543,Calcutta International School,22.52010000000007,88.39951000000008,The Gateway Hotel By Taj,Hotel,22.51293358111395,88.40080261230469
544,Calcutta International School,22.52010000000007,88.39951000000008,Cinépolis,Multiplex,22.514823773808452,88.3932364073074
545,Calcutta International School,22.52010000000007,88.39951000000008,KFC,Fried Chicken Joint,22.514668034604917,88.39223027229309
546,Calcutta International School,22.52010000000007,88.39951000000008,Ozora,Chinese Restaurant,22.51467398102319,88.39317440986633
547,Calcutta International School,22.52010000000007,88.39951000000008,Cafe Coffee Day,Café,22.513548075697233,88.40097427368164
548,Calcutta International School,22.52010000000007,88.39951000000008,Subway,Sandwich Place,22.513548075697233,88.40097427368164
549,Calcutta International School,22.52010000000007,88.39951000000008,Arsalan,Mughlai Restaurant,22.5194252810324,88.39911818504333
550,Calcutta International School,22.52010000000007,88.39951000000008,VIP Bazar,Bus Station,22.521463049484932,88.39679416254691
551,Calcutta International School,22.52010000000007,88.39951000000008,Ruby Hospital Crossing,Plaza,22.51399868340531,88.40139806313236
552,Calcutta International School,22.52010000000007,88.39951000000008,Orko's Hotel,Hotel,22.518752522666936,88.39181020582248
553,Calcutta International School,22.52010000000007,88.39951000000008,Asia Kitchen by Mainland China,Asian Restaurant,22.514727501195868,88.39318513870239
554,Calcutta Riverside,22.512730000000033,88.21643000000006,State Bank of India ATM,ATM,22.5132689,88.2229909
555,Calcutta Riverside,22.512730000000033,88.21643000000006,State Bank of India ATM,ATM,22.5132689,88.2229909
556,Chak Baria,22.559965124617705,88.39920552331353,Woodland Original,Clothing Store,22.56555655431872,88.40098598071059
557,Chak Baria,22.559965124617705,88.39920552331353,Drumstick,Restaurant,22.56516,88.39432
558,Chak Baria,22.559965124617705,88.39920552331353,Apollo Pharmacy,Pharmacy,22.5618121,88.4076025
559,Chak Baria,22.559965124617705,88.39920552331353,Brand Factory,Convenience Store,22.56325361426019,88.40728282928465
560,Chak Baria,22.559965124617705,88.39920552331353,Subhas Sarovar,Scenic Lookout,22.567589653908193,88.40357208792268
561,Chak Garia,22.48386000000005,88.39996000000008,Inox,Multiplex,22.48319670950164,88.39080333709717
562,Chak Garia,22.48386000000005,88.39996000000008,Metropolis Mall,Shopping Mall,22.48319670950164,88.39080333709717
563,Chak Garia,22.48386000000005,88.39996000000008,Ajoy Nagar,Bus Station,22.489780059160733,88.39488480533251
564,Chak Garia,22.48386000000005,88.39996000000008,Big Bazaar,Department Store,22.48319670950164,88.39080333709717
565,Chak Garia,22.48386000000005,88.39996000000008,Club Verde Vista,Hotel,22.47536944959281,88.40092914144667
566,Chak Garia,22.48386000000005,88.39996000000008,The French Loaf,Bakery,22.490871000076805,88.39455319497635
567,Chakapara,22.632220000000075,88.34861000000006,Theatre Road Puchkas,Food Truck,22.63676282396286,88.3469691369542
568,Chakapara,22.632220000000075,88.34861000000006,Vyaghri,Clothing Store,22.63120307857203,88.35428237915039
569,Chakapara,22.632220000000075,88.34861000000006,Big Bazaar,Shopping Mall,22.626656268879483,88.34892775751818
570,Chakapara,22.632220000000075,88.34861000000006,Belur Railway Station,Train Station,22.63571864662064,88.33981990814209
571,Champdani,22.60614000000004,88.41106000000008,Subway,Sandwich Place,22.602006748081752,88.40977191925049
572,Champdani,22.60614000000004,88.41106000000008,Domino's Pizza,Pizza Place,22.606,88.409
573,Champdani,22.60614000000004,88.41106000000008,Jaya Multiplex,Multiplex,22.60619834968458,88.40284742517824
574,Champdani,22.60614000000004,88.41106000000008,Cafe Coffee Day,Café,22.60619834968458,88.40289952552068
575,Champdani,22.60614000000004,88.41106000000008,Mio Amore,Bakery,22.598242862489666,88.41161727905273
576,Champdani,22.60614000000004,88.41106000000008,Aminia,Indian Restaurant,22.61444664803176,88.41183185577393
577,Champdani,22.60614000000004,88.41106000000008,Kwality Bus Stop,Bus Station,22.5984013400787,88.41446897735194
578,Chandannagar,22.50470000000007,88.23987000000005,Royal Enfield Showroom,Motorcycle Shop,22.49936,88.24606
579,"Chandpur, Ghola",22.685770000000048,88.42808000000008,MedPlus,Pharmacy,22.68585,88.42796
580,"Chandpur, Ghola",22.685770000000048,88.42808000000008,Shymol Paul,Art Gallery,22.684615,88.437535
581,Charu Market,22.522941618096834,88.3668223863466,6 Ballygunge Place,Bengali Restaurant,22.527711762714475,88.36867703124626
582,Charu Market,22.522941618096834,88.3668223863466,China Whites,Chinese Restaurant,22.52196025547201,88.36548200870713
583,Charu Market,22.522941618096834,88.3668223863466,Gariahat Junction,Plaza,22.5197036586171,88.36542244843267
584,Charu Market,22.522941618096834,88.3668223863466,Sienna Store & Cafe,Arts & Crafts Store,22.517641332811532,88.3629834651947
585,Charu Market,22.522941618096834,88.3668223863466,Fabindia,Boutique,22.518523398976704,88.36346626281738
586,Charu Market,22.522941618096834,88.3668223863466,Balaram Mullick & Radharaman Mullick,Indian Sweet Shop,22.52824557543919,88.36643815040588
587,Charu Market,22.522941618096834,88.3668223863466,Smoke Shack,Lounge,22.523251858661805,88.36377448643061
588,Charu Market,22.522941618096834,88.3668223863466,Chowman,Chinese Restaurant,22.526977073385158,88.36850881576538
589,Charu Market,22.522941618096834,88.3668223863466,Barista,Café,22.520317246507002,88.3624255657196
590,Charu Market,22.522941618096834,88.3668223863466,Mama Mia!,Ice Cream Shop,22.527692395184957,88.36126689677388
591,Charu Market,22.522941618096834,88.3668223863466,Cream Centre,Vegetarian / Vegan Restaurant,22.52709599594756,88.36844444274902
592,Charu Market,22.522941618096834,88.3668223863466,Byloom,Boutique,22.51775035253012,88.363037109375
593,Charu Market,22.522941618096834,88.3668223863466,Mrs Magpie,Café,22.516370255655424,88.36180597543716
594,Charu Market,22.522941618096834,88.3668223863466,Hotel Park Plaza,Hotel,22.523317433172185,88.36381243056712
595,Charu Market,22.522941618096834,88.3668223863466,Bhojohori Manna,Bengali Restaurant,22.520287514417266,88.36103081703186
596,Charu Market,22.522941618096834,88.3668223863466,Wise Owl,Coffee Shop,22.517164950856994,88.36104199399729
597,Charu Market,22.522941618096834,88.3668223863466,Pantaloons,Clothing Store,22.52301404801808,88.36527703264542
598,Charu Market,22.522941618096834,88.3668223863466,Bohemian,Bengali Restaurant,22.529425566363432,88.3686920178698
599,Charu Market,22.522941618096834,88.3668223863466,Aminia,Mughlai Restaurant,22.51657095282566,88.36673855781555
600,Charu Market,22.522941618096834,88.3668223863466,Ballygunge Phari,Plaza,22.527779798694564,88.36609482765198
601,Charu Market,22.522941618096834,88.3668223863466,Kimli,Chinese Restaurant,22.5172250749132,88.36501657962799
602,Charu Market,22.522941618096834,88.3668223863466,Golpark,Plaza,22.516224068644274,88.36621820926666
603,Charu Market,22.522941618096834,88.3668223863466,Cafe Coffee Day,Café,22.521060546671123,88.36567103862762
604,Charu Market,22.522941618096834,88.3668223863466,Mirch Masala,Indian Restaurant,22.52339692924683,88.36471856320847
605,Charu Market,22.522941618096834,88.3668223863466,Domino's Pizza,Pizza Place,22.528,88.367
606,Charu Market,22.522941618096834,88.3668223863466,Cafe Coffee Day,Café,22.516449193049613,88.36690548565103
607,Charu Market,22.522941618096834,88.3668223863466,Bhojohori Manna,Bengali Restaurant,22.520991172158308,88.36632549762726
608,Charu Market,22.522941618096834,88.3668223863466,Ice Skating Rink,Flea Market,22.52705001628729,88.36606309048823
609,Charu Market,22.522941618096834,88.3668223863466,Ballygunge Dhaba,Dhaba,22.528196024796333,88.36578369140625
610,Charu Market,22.522941618096834,88.3668223863466,Gariahat Market,Market,22.519053297571688,88.36541838630836
611,Chetla,22.516210000000058,88.34100000000007,Cinépolis,Multiplex,22.516558533860774,88.34893772599038
612,Chetla,22.516210000000058,88.34100000000007,Bachan's Dhaba,Dhaba,22.517056589216978,88.34517359733582
613,Chetla,22.516210000000058,88.34100000000007,Banana Leaf,South Indian Restaurant,22.517150743013705,88.34946781396866
614,Chetla,22.516210000000058,88.34100000000007,Rash Behari More,Plaza,22.5169722298417,88.3463246222304
615,Chetla,22.516210000000058,88.34100000000007,Oudh 1590,Awadhi Restaurant,22.51858286390888,88.35025906562805
616,Chetla,22.516210000000058,88.34100000000007,Cafe Coffee Day,Café,22.514563968009185,88.3467936515808
617,Chetla,22.516210000000058,88.34100000000007,Lake Market,Market,22.516684851552366,88.3497339436174
618,Chetla,22.516210000000058,88.34100000000007,Zyka,Asian Restaurant,22.508965069697684,88.33626866689522
619,Chetla,22.516210000000058,88.34100000000007,Chetla Park,Park,22.517155698474916,88.33634376525879
620,Chinsurah,22.903530000000046,88.38261000000006,Axis Bank ATM,ATM,22.90353012085,88.382606506348
621,Chitpur,22.574070000000003,88.35371775000003,Lalit Great Eastern Hotel,Hotel,22.56796710486943,88.35001000801633
622,Chitpur,22.574070000000003,88.35371775000003,Anand Restaurant,South Indian Restaurant,22.56733155298006,88.354895689176
623,Chitpur,22.574070000000003,88.35371775000003,Amber,Indian Restaurant,22.567543544093432,88.35184693336487
624,Chitpur,22.574070000000003,88.35371775000003,New Aliah Hotel & Caterer,Mughlai Restaurant,22.567537194306293,88.35243692856844
625,Chitpur,22.574070000000003,88.35371775000003,K. C. Das,Indian Sweet Shop,22.565434244831792,88.35166743562479
626,Chitpur,22.574070000000003,88.35371775000003,Cafe Coffee Day,Café,22.567637663459436,88.35610091686249
627,Chitpur,22.574070000000003,88.35371775000003,Millennium Park,Park,22.572481038151835,88.34451717949295
628,Chitpur,22.574070000000003,88.35371775000003,Bhikharam Sweets & Snacks,Vegetarian / Vegan Restaurant,22.57723804649535,88.35553804009835
629,Chitpur,22.574070000000003,88.35371775000003,Royal Indian Hotel,Indian Restaurant,22.57949123617736,88.35665345191956
630,Chitpur,22.574070000000003,88.35371775000003,Kaka Tea,Breakfast Spot,22.56951679412061,88.35113287796466
631,Chitpur,22.574070000000003,88.35371775000003,Broadway Hotel,Hotel,22.568108259325605,88.35597753524779
632,Chitpur,22.574070000000003,88.35371775000003,Bakery & Wilson's,Bakery,22.568417407456767,88.35050691971271
633,Chitpur,22.574070000000003,88.35371775000003,Chandni Chowk Market,Flea Market,22.56661118962308,88.35588891639183
634,Chitpur,22.574070000000003,88.35371775000003,Fairlie Ghat,Boat or Ferry,22.575726825751644,88.34513373892916
635,Chitpur,22.574070000000003,88.35371775000003,Mullick Ghat Flower Market,Market,22.581921416816552,88.34925497604009
636,Chowringhee,22.544970000000035,88.35436000000004,The Blue Poppy,Asian Restaurant,22.548543210513543,88.35135293517806
637,Chowringhee,22.544970000000035,88.35436000000004,Monkey Bar,Gastropub,22.544285918954575,88.3519599306665
638,Chowringhee,22.544970000000035,88.35436000000004,Nocturne,Nightclub,22.545077960882093,88.3573835632132
639,Chowringhee,22.544970000000035,88.35436000000004,Plush,Nightclub,22.545646661681943,88.35183620452881
640,Chowringhee,22.544970000000035,88.35436000000004,Bombay Shiv Sagar,Indian Restaurant,22.54657809306256,88.35334897041321
641,Chowringhee,22.544970000000035,88.35436000000004,The French Loaf,Bakery,22.539240423448703,88.35492074489594
642,Chowringhee,22.544970000000035,88.35436000000004,Underground,Nightclub,22.54129002888685,88.35062863439614
643,Chowringhee,22.544970000000035,88.35436000000004,ATS ARUN TEA STALL,Tea Room,22.544849700688523,88.35455651967231
644,Chowringhee,22.544970000000035,88.35436000000004,Kookie Jar,Bakery,22.54359550871261,88.35816085338593
645,Chowringhee,22.544970000000035,88.35436000000004,Peter Cat,Indian Restaurant,22.552364717378428,88.35254430770874
646,Chowringhee,22.544970000000035,88.35436000000004,Oh! Calcutta,Bengali Restaurant,22.53835691442138,88.35140625118088
647,Chowringhee,22.544970000000035,88.35436000000004,Jalapeños,Mexican Restaurant,22.547247379747255,88.3544857734281
648,Chowringhee,22.544970000000035,88.35436000000004,The Rouge,Café,22.541217298910773,88.35926670939986
649,Chowringhee,22.544970000000035,88.35436000000004,Kenilworth Hotel,Hotel,22.546210731755366,88.35013317795007
650,Chowringhee,22.544970000000035,88.35436000000004,Hotel Hindusthan International,Hotel,22.541075138603233,88.35048995950599
651,Chowringhee,22.544970000000035,88.35436000000004,Vardaan Shopping Market,Shopping Mall,22.54819321981021,88.35381031036377
652,Chowringhee,22.544970000000035,88.35436000000004,Shiraz Golden Restaurant,Mughlai Restaurant,22.546535533549203,88.3616544965681
653,Chowringhee,22.544970000000035,88.35436000000004,8th Day Cafe & Bakery,Café,22.54240650553313,88.36098124876465
654,Chowringhee,22.544970000000035,88.35436000000004,Aqua Java Fast Food Pvt. Ltd.,Café,22.54294895951828,88.35586669033904
655,Chowringhee,22.544970000000035,88.35436000000004,TGI Fridays,American Restaurant,22.538591688992373,88.3513984332749
656,Chowringhee,22.544970000000035,88.35436000000004,Kaidi Kitchen,Theme Restaurant,22.54246587522062,88.35158944129944
657,Chowringhee,22.544970000000035,88.35436000000004,Flurys,Bakery,22.552786429700397,88.35262520281624
658,Chowringhee,22.544970000000035,88.35436000000004,Arsalan,Mughlai Restaurant,22.553897023487213,88.35406338023041
659,Chowringhee,22.544970000000035,88.35436000000004,Subway,Sandwich Place,22.540684109914253,88.35238825392982
660,Chowringhee,22.544970000000035,88.35436000000004,Marco Polo,Chinese Restaurant,22.55147694425327,88.35382711655352
661,Chowringhee,22.544970000000035,88.35436000000004,Mocha,Café,22.543133469563905,88.36059097663687
662,Chowringhee,22.544970000000035,88.35436000000004,Bar-B-Q,BBQ Joint,22.55312518463798,88.35262477397919
663,Chowringhee,22.544970000000035,88.35436000000004,Mythh,Restaurant,22.540910136769966,88.35167527198792
664,Chowringhee,22.544970000000035,88.35436000000004,Picadilly Square,Café,22.538270555260876,88.35448772169569
665,Chowringhee,22.544970000000035,88.35436000000004,Mocambo,Restaurant,22.55320566647117,88.35329612619873
666,Cossipore,22.623410000000035,88.37343000000004,Sinthee More,Plaza,22.630965412985603,88.37846517562866
667,Cossipore,22.623410000000035,88.37343000000004,State Bank of India ATM,ATM,22.6194466,88.3709166
668,Cossipore,22.623410000000035,88.37343000000004,Foodpath,Burger Joint,22.623201444513704,88.37934494018553
669,Cossipore,22.623410000000035,88.37343000000004,Chiria More,Plaza,22.618744155644148,88.37928688412532
670,Dakshin Jhapardaha,22.632010000000037,88.21485000000007,J M Shopping Mall,Shopping Mall,22.634994,88.219807
671,Dakshin Jhapardaha,22.632010000000037,88.21485000000007,HDFC Bank ATM,ATM,22.634723,88.220823
672,Dakshin Rajyadharpur,22.74971000000005,88.32689000000005,"Maruti Service Center, Serampore",Auto Workshop,22.754433,88.32806
673,Dakshin Rajyadharpur,22.74971000000005,88.32689000000005,Mio Amore,Bakery,22.748567935878576,88.31850460489996
674,Dakshin Rajyadharpur,22.74971000000005,88.32689000000005,Apollo Pharmacy,Pharmacy,22.7542245,88.3344695
675,Dakshineswar,22.655160000000024,88.35897000000006,Dakshineshwar Belur Ferry Terminal,Boat or Ferry,22.65560122435269,88.35728645324706
676,Dakshineswar,22.655160000000024,88.35897000000006,Dakshineswar Railway Station,Train Station,22.65384874230737,88.36382031440735
677,Dakshineswar,22.655160000000024,88.35897000000006,Axis Bank ATM,ATM,22.651077270508,88.362754821777
678,Dakshineswar,22.655160000000024,88.35897000000006,MedPlus,Pharmacy,22.659684,88.363752
679,Dakshineswar,22.655160000000024,88.35897000000006,State Bank of India ATM,ATM,22.6491196,88.3634715
680,Dankuni,22.577860000000044,88.34915000000007,KFC,Fried Chicken Joint,22.583027792100875,88.3427381515503
681,Dankuni,22.577860000000044,88.34915000000007,Millennium Park,Park,22.572481038151835,88.34451717949295
682,Dankuni,22.577860000000044,88.34915000000007,Gujarati Hotel,Gujarati Restaurant,22.577459674151324,88.3499094056604
683,Dankuni,22.577860000000044,88.34915000000007,Royal Indian Hotel,Indian Restaurant,22.57949123617736,88.35665345191956
684,Dankuni,22.577860000000044,88.34915000000007,Bhikharam Sweets & Snacks,Vegetarian / Vegan Restaurant,22.57723804649535,88.35553804009835
685,Dankuni,22.577860000000044,88.34915000000007,Prepaid Taxi Stand,Taxi Stand,22.582056981867694,88.34284543991087
686,Dankuni,22.577860000000044,88.34915000000007,Platform No. 23,Platform,22.58102877235945,88.34177190123513
687,Dankuni,22.577860000000044,88.34915000000007,Comesum,Restaurant,22.581479460566477,88.34196251400259
688,Dankuni,22.577860000000044,88.34915000000007,Eastern Railway Catering Service,Food & Drink Shop,22.580531409108,88.34076404571533
689,Dankuni,22.577860000000044,88.34915000000007,Kaka Tea,Breakfast Spot,22.56951679412061,88.35113287796466
690,Dankuni,22.577860000000044,88.34915000000007,Platform No. 11,Platform,22.584058032212745,88.3426308631897
691,Dankuni,22.577860000000044,88.34915000000007,Platform No. 9,Platform,22.58356272542835,88.34164381027222
692,Dhakuria,22.51084000000003,88.37258000000008,Dakshinapan Shopping Complex,Shopping Mall,22.50874853415032,88.3666005339919
693,Dhakuria,22.51084000000003,88.37258000000008,Aminia,Mughlai Restaurant,22.51657095282566,88.36673855781555
694,Dhakuria,22.51084000000003,88.37258000000008,Dolly's Tea,Tea Room,22.509053307081395,88.36671726578084
695,Dhakuria,22.51084000000003,88.37258000000008,Golpark,Plaza,22.516224068644274,88.36621820926666
696,Dhakuria,22.51084000000003,88.37258000000008,Domino's Pizza,Pizza Place,22.504,88.367
697,Dhakuria,22.51084000000003,88.37258000000008,Tandoor Park,Asian Restaurant,22.50649113476751,88.36726427078247
698,Dhakuria,22.51084000000003,88.37258000000008,Cafe Coffee Day,Café,22.516449193049613,88.36690548565103
699,Dhakuria,22.51084000000003,88.37258000000008,Koshe Kosha,Bengali Restaurant,22.517345104430206,88.36785967859396
700,Dhakuria,22.51084000000003,88.37258000000008,Azad Hind Dhaba,Dhaba,22.517988213435785,88.37644815444946
701,Dhalai Bridge,22.569570000000056,88.34264000000007,Eden Garden,Cricket Ground,22.564541597977065,88.34329605102539
702,Dhalai Bridge,22.569570000000056,88.34264000000007,Lalit Great Eastern Hotel,Hotel,22.56796710486943,88.35001000801633
703,Dhalai Bridge,22.569570000000056,88.34264000000007,Calcutta Swimming Club,Pool,22.568066908154865,88.34206982619719
704,Dhalai Bridge,22.569570000000056,88.34264000000007,Netaji Indoor Stadium,Stadium,22.566156514407012,88.3416974544525
705,Dhalai Bridge,22.569570000000056,88.34264000000007,The Floatel Hotel,Hotel,22.56976164879978,88.34186892294773
706,Dhalai Bridge,22.569570000000056,88.34264000000007,Amber,Indian Restaurant,22.567543544093432,88.35184693336487
707,Dhalai Bridge,22.569570000000056,88.34264000000007,Millennium Park,Park,22.572481038151835,88.34451717949295
708,Dhalai Bridge,22.569570000000056,88.34264000000007,Ramkrishnapur ghat,Boat or Ferry,22.56963996195657,88.34040972098622
709,Dhalai Bridge,22.569570000000056,88.34264000000007,Babu Ghat,River,22.567724968842303,88.34068482853557
710,Dhalai Bridge,22.569570000000056,88.34264000000007,Fairlie Ghat,Boat or Ferry,22.575726825751644,88.34513373892916
711,Dhalai Bridge,22.569570000000056,88.34264000000007,Outram Ghat,River,22.563828254635645,88.33806037902832
712,Dhalai Bridge,22.569570000000056,88.34264000000007,Bakery & Wilson's,Bakery,22.568417407456767,88.35050691971271
713,Dhalai Bridge,22.569570000000056,88.34264000000007,Kaka Tea,Breakfast Spot,22.56951679412061,88.35113287796466
714,"Dhapa, India",22.531900000000064,88.32670000000007,Taj Bengal,Hotel,22.537459297849168,88.33406559589542
715,"Dhapa, India",22.531900000000064,88.32670000000007,India Restaurant & Caterer,Awadhi Restaurant,22.53890350555251,88.32227826118468
716,"Dhapa, India",22.531900000000064,88.32670000000007,Sonargaon,Indian Restaurant,22.537544764755527,88.33421006677327
717,"Dhapa, India",22.531900000000064,88.32670000000007,Piccadilly Square,Dessert Shop,22.52460326821862,88.3320793450184
718,"Dhapa, India",22.531900000000064,88.32670000000007,Garden Cafe,South Indian Restaurant,22.53205101170573,88.3317518234253
719,"Dhapa, India",22.531900000000064,88.32670000000007,Zoological Garden,Zoo,22.536601770012737,88.3329052514112
720,"Dhapa, India",22.531900000000064,88.32670000000007,Sparkz,Athletics & Sports,22.52716998685191,88.32551335896203
721,"Dhapa, India",22.531900000000064,88.32670000000007,The French Loaf,Bakery,22.525242774383898,88.32763195037842
722,"Dhapa, India",22.531900000000064,88.32670000000007,The Agri-Horticultural Society of India,Garden,22.527184666711005,88.3327866494838
723,"Dhapa, India",22.531900000000064,88.32670000000007,The Promenade,Tea Room,22.537450663008382,88.33414343614419
724,Dharmatala,22.56389000000007,88.35303000000005,The Oberoi Grand,Hotel,22.56174943131244,88.35159438973265
725,Dharmatala,22.56389000000007,88.35303000000005,Blue & Beyond,Pub,22.55913129083683,88.35327973820304
726,Dharmatala,22.56389000000007,88.35303000000005,Lalit Great Eastern Hotel,Hotel,22.56796710486943,88.35001000801633
727,Dharmatala,22.56389000000007,88.35303000000005,Anand Restaurant,South Indian Restaurant,22.56733155298006,88.354895689176
728,Dharmatala,22.56389000000007,88.35303000000005,Esplanade,Neighborhood,22.564244372033293,88.35230827331543
729,Dharmatala,22.56389000000007,88.35303000000005,Nizam's,Mughlai Restaurant,22.56184369778313,88.3535812160456
730,Dharmatala,22.56389000000007,88.35303000000005,Baan Thai,Thai Restaurant,22.561681720242696,88.35157777094761
731,Dharmatala,22.56389000000007,88.35303000000005,Amber,Indian Restaurant,22.567543544093432,88.35184693336487
732,Dharmatala,22.56389000000007,88.35303000000005,The Peerless Inn,Hotel,22.56234441515912,88.35145933869875
733,Dharmatala,22.56389000000007,88.35303000000005,Raj's Spanish Cafe,Café,22.558344024687408,88.35417824899879
734,Dharmatala,22.56389000000007,88.35303000000005,Blue Sky Cafe,Restaurant,22.558188260327913,88.3529315297028
735,Dharmatala,22.56389000000007,88.35303000000005,Nahoum and Sons,Bakery,22.56022036249569,88.3529970912115
736,Dharmatala,22.56389000000007,88.35303000000005,Sir Stuart Hogg Market,Market,22.5600012727137,88.3525744443409
737,Dharmatala,22.56389000000007,88.35303000000005,Kasturi Restaurant (Dhakai Bengali Cuisine),Asian Restaurant,22.556848193491728,88.35486710071564
738,Dharmatala,22.56389000000007,88.35303000000005,K. C. Das,Indian Sweet Shop,22.565434244831792,88.35166743562479
739,Dharmatala,22.56389000000007,88.35303000000005,New Aliah Hotel & Caterer,Mughlai Restaurant,22.567537194306293,88.35243692856844
740,Dharmatala,22.56389000000007,88.35303000000005,Domino's Pizza,Pizza Place,22.56,88.353
741,Dharmatala,22.56389000000007,88.35303000000005,Subway,Sandwich Place,22.561826910561027,88.3552211523056
742,Dharmatala,22.56389000000007,88.35303000000005,The Bhoj Company,Bengali Restaurant,22.557939909734227,88.35430046720232
743,Dharmatala,22.56389000000007,88.35303000000005,Sreeleathers,Shoe Store,22.559439130374898,88.35171818733215
744,Dharmatala,22.56389000000007,88.35303000000005,Barista,Café,22.56064367858119,88.35164501888916
745,Dharmatala,22.56389000000007,88.35303000000005,KFC,Fast Food Restaurant,22.56062259853304,88.35157647508613
746,Dharmatala,22.56389000000007,88.35303000000005,Wow! Momo,Dumpling Restaurant,22.56077668868409,88.35147142410278
747,Dharmatala,22.56389000000007,88.35303000000005,Cafe Coffee Day,Café,22.567637663459436,88.35610091686249
748,Dharmatala,22.56389000000007,88.35303000000005,Aminia,Mughlai Restaurant,22.56234788552488,88.35363045600486
749,Dharmatala,22.56389000000007,88.35303000000005,Domino's Pizza,Pizza Place,22.556080315658914,88.35041999816895
750,Dharmatala,22.56389000000007,88.35303000000005,Fairlawn Hotel,Beer Garden,22.558546741926673,88.35265958867959
751,Dharmatala,22.56389000000007,88.35303000000005,Indian Museum,Museum,22.558022295203333,88.3509349822998
752,Dharmatala,22.56389000000007,88.35303000000005,Chandni Chowk Market,Flea Market,22.56661118962308,88.35588891639183
753,Dharmatala,22.56389000000007,88.35303000000005,Cafe Coffee Day,Café,22.55540656126555,88.35031270980835
754,Dhuilya,22.57054000000005,88.37124000000006,Big Bazaar,Department Store,22.565918736488236,88.36963534355162
755,Dhuilya,22.57054000000005,88.37124000000006,Bhim Chandra Nag,Indian Sweet Shop,22.570638822213024,88.37152372833114
756,Dhuilya,22.57054000000005,88.37124000000006,Indian Coffee House,Café,22.576186678115835,88.36401300379693
757,Dhuilya,22.57054000000005,88.37124000000006,College Square,Plaza,22.57474596671362,88.36389541625975
758,Dhuilya,22.57054000000005,88.37124000000006,Paramount,Juice Bar,22.573874166664815,88.3644962310791
759,Dhuilya,22.57054000000005,88.37124000000006,Café Coffee Day,Café,22.565918736488236,88.36963534355162
760,Dhuilya,22.57054000000005,88.37124000000006,Sealdah Railway Station,Train Station,22.56796955755306,88.3711266517639
761,Dhuilya,22.57054000000005,88.37124000000006,Sealdah Rajdhani,Platform,22.568173374957258,88.37283664335622
762,Dhuilya,22.57054000000005,88.37124000000006,Santosh Mitra Square,Park,22.56600790325582,88.36571931838989
763,Dum Dum,22.619930000000068,88.39418000000006,Dum Dum Railway Junction,Train Station,22.62143383151218,88.39331200215173
764,Dum Dum,22.619930000000068,88.39418000000006,Mio Amore,Bakery,22.621092212206577,88.39279088001274
765,Dum Dum,22.619930000000068,88.39418000000006,Dum Dum Metro Railway Station,Metro Station,22.621775361822166,88.39333534240723
766,Dum Dum,22.619930000000068,88.39418000000006,Platform 2,Platform,22.621654354792973,88.39305144186935
767,Dum Dum Park,22.609470000000044,88.41606000000007,KFC,Fried Chicken Joint,22.615516268438355,88.41234683990479
768,Dum Dum Park,22.609470000000044,88.41606000000007,PVR Cinemas,Multiplex,22.615918692844463,88.4120397922924
769,Dum Dum Park,22.609470000000044,88.41606000000007,Diamond Plaza Mall,Shopping Mall,22.615516268438355,88.4125292301178
770,Dum Dum Park,22.609470000000044,88.41606000000007,Domino's Pizza,Pizza Place,22.606,88.409
771,Dum Dum Park,22.609470000000044,88.41606000000007,Aminia,Indian Restaurant,22.61444664803176,88.41183185577393
772,Dum Dum Park,22.609470000000044,88.41606000000007,Pantaloons,Department Store,22.61548019932214,88.41236400060825
773,Dum Dum Park,22.609470000000044,88.41606000000007,The Yellow Chilli,Diner,22.6107029111073,88.4085488319397
774,Dum Dum Park,22.609470000000044,88.41606000000007,Big Bazaar,Department Store,22.61619899217982,88.41214397068237
775,"Durganagar, Kolkata",22.520157506520878,88.36983983819033,Gariahat Junction,Plaza,22.5197036586171,88.36542244843267
776,"Durganagar, Kolkata",22.520157506520878,88.36983983819033,Sienna Store & Cafe,Arts & Crafts Store,22.517641332811532,88.3629834651947
777,"Durganagar, Kolkata",22.520157506520878,88.36983983819033,6 Ballygunge Place,Bengali Restaurant,22.527711762714475,88.36867703124626
778,"Durganagar, Kolkata",22.520157506520878,88.36983983819033,China Whites,Chinese Restaurant,22.52196025547201,88.36548200870713
779,"Durganagar, Kolkata",22.520157506520878,88.36983983819033,Fabindia,Boutique,22.518523398976704,88.36346626281738
780,"Durganagar, Kolkata",22.520157506520878,88.36983983819033,Mrs Magpie,Café,22.516370255655424,88.36180597543716
781,"Durganagar, Kolkata",22.520157506520878,88.36983983819033,Byloom,Boutique,22.51775035253012,88.363037109375
782,"Durganagar, Kolkata",22.520157506520878,88.36983983819033,Barista,Café,22.520317246507002,88.3624255657196
783,"Durganagar, Kolkata",22.520157506520878,88.36983983819033,Chowman,Chinese Restaurant,22.526977073385158,88.36850881576538
784,"Durganagar, Kolkata",22.520157506520878,88.36983983819033,Aminia,Mughlai Restaurant,22.51657095282566,88.36673855781555
785,"Durganagar, Kolkata",22.520157506520878,88.36983983819033,Balaram Mullick & Radharaman Mullick,Indian Sweet Shop,22.52824557543919,88.36643815040588
786,"Durganagar, Kolkata",22.520157506520878,88.36983983819033,Wise Owl,Coffee Shop,22.517164950856994,88.36104199399729
787,"Durganagar, Kolkata",22.520157506520878,88.36983983819033,Cream Centre,Vegetarian / Vegan Restaurant,22.52709599594756,88.36844444274902
788,"Durganagar, Kolkata",22.520157506520878,88.36983983819033,Smoke Shack,Lounge,22.523251858661805,88.36377448643061
789,"Durganagar, Kolkata",22.520157506520878,88.36983983819033,Bhojohori Manna,Bengali Restaurant,22.520287514417266,88.36103081703186
790,"Durganagar, Kolkata",22.520157506520878,88.36983983819033,Hotel Park Plaza,Hotel,22.523317433172185,88.36381243056712
791,"Durganagar, Kolkata",22.520157506520878,88.36983983819033,Golpark,Plaza,22.516224068644274,88.36621820926666
792,"Durganagar, Kolkata",22.520157506520878,88.36983983819033,Kimli,Chinese Restaurant,22.5172250749132,88.36501657962799
793,"Durganagar, Kolkata",22.520157506520878,88.36983983819033,Pantaloons,Clothing Store,22.52301404801808,88.36527703264542
794,"Durganagar, Kolkata",22.520157506520878,88.36983983819033,Cafe Coffee Day,Café,22.521060546671123,88.36567103862762
795,"Durganagar, Kolkata",22.520157506520878,88.36983983819033,Ballygunge Phari,Plaza,22.527779798694564,88.36609482765198
796,"Durganagar, Kolkata",22.520157506520878,88.36983983819033,Cafe Coffee Day,Café,22.516449193049613,88.36690548565103
797,"Durganagar, Kolkata",22.520157506520878,88.36983983819033,Mirch Masala,Indian Restaurant,22.52339692924683,88.36471856320847
798,"Durganagar, Kolkata",22.520157506520878,88.36983983819033,Domino's Pizza,Pizza Place,22.528,88.367
799,"Durganagar, Kolkata",22.520157506520878,88.36983983819033,Gariahat Market,Market,22.519053297571688,88.36541838630836
800,"Durganagar, Kolkata",22.520157506520878,88.36983983819033,Bhojohori Manna,Bengali Restaurant,22.520991172158308,88.36632549762726
801,"Durganagar, Kolkata",22.520157506520878,88.36983983819033,Spencer's Hyper,Department Store,22.519152585285212,88.36153573639466
802,"Durganagar, Kolkata",22.520157506520878,88.36983983819033,Ice Skating Rink,Flea Market,22.52705001628729,88.36606309048823
803,"Durganagar, Kolkata",22.520157506520878,88.36983983819033,Ballygunge Dhaba,Dhaba,22.528196024796333,88.36578369140625
804,"Durganagar, Kolkata",22.520157506520878,88.36983983819033,Azad Hind Dhaba,Dhaba,22.517988213435785,88.37644815444946
805,Duttapukur,22.49669895920134,88.3488957223152,Royal Calcutta Golf Club (RCGC),Golf Course,22.494599652615197,88.35106648888241
806,Duttapukur,22.49669895920134,88.3488957223152,Tollygunge Club,Sports Club,22.495360102026766,88.34308369634587
807,Duttapukur,22.49669895920134,88.3488957223152,Navina Cinema Hall,Movie Theater,22.50092065457862,88.34871411323547
808,Duttapukur,22.49669895920134,88.3488957223152,Princeton Club,Lounge,22.501757471291935,88.3495997018316
809,Duttapukur,22.49669895920134,88.3488957223152,Silver Screen,Restaurant,22.492197743831664,88.34595680236816
810,Duttapukur,22.49669895920134,88.3488957223152,Tolly Terrace,Hotel,22.495302614326608,88.34304688693476
811,East Kolkata,22.484840000000077,88.37523000000004,Cafe Coffee Day,Café,22.490272700936092,88.37289351963958
812,East Kolkata,22.484840000000077,88.37523000000004,State Bank of India ATM,ATM,22.4844471,88.3829917
813,East Kolkata,22.484840000000077,88.37523000000004,Calcutta Bistro,Bistro,22.49186071124546,88.37213516235352
814,East Kolkata,22.484840000000077,88.37523000000004,Apollo Pharmacy,Pharmacy,22.491396,88.3702992
815,Ekbalpur,22.535290000000032,88.32268000000005,India Restaurant & Caterer,Awadhi Restaurant,22.53890350555251,88.32227826118468
816,Ekbalpur,22.535290000000032,88.32268000000005,Fancy Market,Market,22.539057,88.322926
817,Ekbalpur,22.535290000000032,88.32268000000005,Garden Cafe,South Indian Restaurant,22.53205101170573,88.3317518234253
818,Ekbalpur,22.535290000000032,88.32268000000005,Sparkz,Athletics & Sports,22.52716998685191,88.32551335896203
819,Eksara,22.57054000000005,88.37124000000006,Big Bazaar,Department Store,22.565918736488236,88.36963534355162
820,Eksara,22.57054000000005,88.37124000000006,Bhim Chandra Nag,Indian Sweet Shop,22.570638822213024,88.37152372833114
821,Eksara,22.57054000000005,88.37124000000006,Indian Coffee House,Café,22.576186678115835,88.36401300379693
822,Eksara,22.57054000000005,88.37124000000006,College Square,Plaza,22.57474596671362,88.36389541625975
823,Eksara,22.57054000000005,88.37124000000006,Paramount,Juice Bar,22.573874166664815,88.3644962310791
824,Eksara,22.57054000000005,88.37124000000006,Café Coffee Day,Café,22.565918736488236,88.36963534355162
825,Eksara,22.57054000000005,88.37124000000006,Sealdah Railway Station,Train Station,22.56796955755306,88.3711266517639
826,Eksara,22.57054000000005,88.37124000000006,Sealdah Rajdhani,Platform,22.568173374957258,88.37283664335622
827,Eksara,22.57054000000005,88.37124000000006,Santosh Mitra Square,Park,22.56600790325582,88.36571931838989
828,Entally,22.55659000000003,88.36925000000008,CIT Cafe,Chinese Restaurant,22.552687105920374,88.37185551567953
829,Entally,22.55659000000003,88.36925000000008,Ananda Palit,Bus Station,22.55568121817436,88.37250012381388
830,Entally,22.55659000000003,88.36925000000008,Baptist Missionary Society,Campground,22.5515667,88.3628103
831,Entally,22.55659000000003,88.36925000000008,Santana Guest House,Hostel,22.550878524780273,88.36312866210938
832,"Esplanade, Kolkata",22.55872000000005,88.34904000000006,The Oberoi Grand,Hotel,22.56174943131244,88.35159438973265
833,"Esplanade, Kolkata",22.55872000000005,88.34904000000006,Blue & Beyond,Pub,22.55913129083683,88.35327973820304
834,"Esplanade, Kolkata",22.55872000000005,88.34904000000006,Aqua,Lounge,22.55473429407938,88.3521798097082
835,"Esplanade, Kolkata",22.55872000000005,88.34904000000006,Blue Sky Cafe,Restaurant,22.558188260327913,88.3529315297028
836,"Esplanade, Kolkata",22.55872000000005,88.34904000000006,Peter Cat,Indian Restaurant,22.552364717378428,88.35254430770874
837,"Esplanade, Kolkata",22.55872000000005,88.34904000000006,Arsalan,Mughlai Restaurant,22.553897023487213,88.35406338023041
838,"Esplanade, Kolkata",22.55872000000005,88.34904000000006,Oxford Bookstore,Bookstore,22.55365167988345,88.35173187860914
839,"Esplanade, Kolkata",22.55872000000005,88.34904000000006,Raj's Spanish Cafe,Café,22.558344024687408,88.35417824899879
840,"Esplanade, Kolkata",22.55872000000005,88.34904000000006,Eden Garden,Cricket Ground,22.564541597977065,88.34329605102539
841,"Esplanade, Kolkata",22.55872000000005,88.34904000000006,Someplace Else,Pub,22.554249671579267,88.35183180934679
842,"Esplanade, Kolkata",22.55872000000005,88.34904000000006,Trincas Tavern,Indian Restaurant,22.553882322238696,88.3515063146341
843,"Esplanade, Kolkata",22.55872000000005,88.34904000000006,Flurys,Bakery,22.552786429700397,88.35262520281624
844,"Esplanade, Kolkata",22.55872000000005,88.34904000000006,Bar-B-Q,BBQ Joint,22.55312518463798,88.35262477397919
845,"Esplanade, Kolkata",22.55872000000005,88.34904000000006,Tantra,Nightclub,22.55384263258614,88.35145864272103
846,"Esplanade, Kolkata",22.55872000000005,88.34904000000006,Kasturi Restaurant (Dhakai Bengali Cuisine),Asian Restaurant,22.556848193491728,88.35486710071564
847,"Esplanade, Kolkata",22.55872000000005,88.34904000000006,Mocambo,Restaurant,22.55320566647117,88.35329612619873
848,"Esplanade, Kolkata",22.55872000000005,88.34904000000006,Zen,Japanese Restaurant,22.55393490120118,88.35202878171792
849,"Esplanade, Kolkata",22.55872000000005,88.34904000000006,Nahoum and Sons,Bakery,22.56022036249569,88.3529970912115
850,"Esplanade, Kolkata",22.55872000000005,88.34904000000006,Baan Thai,Thai Restaurant,22.561681720242696,88.35157777094761
851,"Esplanade, Kolkata",22.55872000000005,88.34904000000006,Sir Stuart Hogg Market,Market,22.5600012727137,88.3525744443409
852,"Esplanade, Kolkata",22.55872000000005,88.34904000000006,One Step Up,Restaurant,22.55303985551416,88.3523720588708
853,"Esplanade, Kolkata",22.55872000000005,88.34904000000006,Nizam's,Mughlai Restaurant,22.56184369778313,88.3535812160456
854,"Esplanade, Kolkata",22.55872000000005,88.34904000000006,The Peerless Inn,Hotel,22.56234441515912,88.35145933869875
855,"Esplanade, Kolkata",22.55872000000005,88.34904000000006,Kusum Rolls,Snack Place,22.553531352641226,88.35223886126985
856,"Esplanade, Kolkata",22.55872000000005,88.34904000000006,Esplanade,Neighborhood,22.564244372033293,88.35230827331543
857,"Esplanade, Kolkata",22.55872000000005,88.34904000000006,Roxy,Nightclub,22.553822313175534,88.35155966239654
858,"Esplanade, Kolkata",22.55872000000005,88.34904000000006,Starbucks,Coffee Shop,22.552443984519737,88.35319876670836
859,"Esplanade, Kolkata",22.55872000000005,88.34904000000006,Marco Polo,Chinese Restaurant,22.55147694425327,88.35382711655352
